Id,source,latitude,longitude,region,country,admin1,localityName,localityQuality,observationDate,reportingDate,status,disease,serotypes,speciesDescription,sumAtRisk,sumCases,sumDeaths,sumDestroyed,sumSlaughtered,humansGenderDesc,humansAge,humansAffected,humansDeaths
265257,OIE,19.7128,105.7483,Asia,Viet Nam,Thanh Hoa,Quang Hoa,Exact,14/02/2020,17/02/2020,Confirmed,Influenza - Avian,H5N6 HPAI,"domestic, unspecified bird",991,100,100,891,,,,,
265256,OIE,19.1203,105.6449,Asia,Viet Nam,Nghe An,Quynh Hung,Exact,12/02/2020,17/02/2020,Confirmed,Influenza - Avian,H5N6 HPAI,"domestic, unspecified bird",161,100,50,111,,,,,
265255,OIE,19.8066,105.8092,Asia,Viet Nam,Thanh Hoa,Dong Hai,Exact,12/02/2020,17/02/2020,Confirmed,Influenza - Avian,H5N6 HPAI,"domestic, unspecified bird",970,500,300,670,,,,,
265254,OIE,19.6454,105.4918,Asia,Viet Nam,Thanh Hoa,Tan Binh,Exact,12/02/2020,17/02/2020,Confirmed,Influenza - Avian,H5N6 HPAI,"domestic, unspecified bird",1298,500,300,998,,,,,
265253,OIE,20.0648,105.6365,Asia,Viet Nam,Thanh Hoa,Vinh Phuc,Exact,12/02/2020,17/02/2020,Confirmed,Influenza - Avian,H5N6 HPAI,"domestic, unspecified bird",3167,1000,500,2667,,,,,
265252,OIE,19.6236,105.6154,Asia,Viet Nam,Thanh Hoa,Van Thang,Exact,12/02/2020,17/02/2020,Confirmed,Influenza - Avian,H5N6 HPAI,"domestic, unspecified bird",1500,1000,500,1000,,,,,
265251,OIE,9.8946,106.0711,Asia,Viet Nam,Tra Vinh,Hoa An,Exact,11/02/2020,17/02/2020,Confirmed,Influenza - Avian,H5N1 HPAI,"domestic, unspecified bird",1500,500,400,1100,,,,,
265250,OIE,9.8694,106.0962,Asia,Viet Nam,Tra Vinh,Chau Dien,Exact,11/02/2020,17/02/2020,Confirmed,Influenza - Avian,H5N1 HPAI,"domestic, unspecified bird",204,190,14,190,,,,,
265249,OIE,23.9945,120.3785,Asia,Taiwan (Province of China),Taiwan Sheng,Fangyuan Township,Exact,07/02/2020,12/02/2020,Confirmed,Influenza - Avian,H5N2 HPAI,"domestic, chicken",60,60,60,,,,,,
265248,OIE,23.626538,120.532122,Asia,Taiwan (Province of China),Taiwan Sheng,Gukeng Township,Exact,06/02/2020,12/02/2020,Confirmed,Influenza - Avian,H5N2 HPAI,"domestic, chicken",15094,1470,1470,13624,,,,,
265247,OIE,23.689834,120.261344,Asia,Taiwan (Province of China),Taiwan Sheng,Dongshi Township,Exact,04/02/2020,12/02/2020,Confirmed,Influenza - Avian,H5N2 HPAI,"domestic, chicken",14020,200,200,13820,,,,,
265246,OIE,24.015011,120.374771,Asia,Taiwan (Province of China),Taiwan Sheng,Fangyuan Township,Exact,29/01/2020,12/02/2020,Confirmed,Influenza - Avian,H5N2 HPAI,"domestic, duck",380,380,380,,,,,,
265138,National authorities,49.9906,15.9683,Europe,Czech Republic,Vychodocesky,Slepotice,Exact,16/02/2020,17/02/2020,Confirmed,Influenza - Avian,H5N8 HPAI,"domestic, turkey",137500,1300,1300,,,,0,,
265136,National authorities,42.29193,24.9466,Europe,Bulgaria,Plovdiv,Bulgaria,Exact,17/02/2020,17/02/2020,Confirmed,Influenza - Avian,H5N8 HPAI,"domestic, duck",15729,9142,9142,5830,,,0,,
265112,National authorities,35.270833,128.663056,Asia,Republic of Korea,Kyongsangnam-do,Changwon,Centroid Locality,,12/02/2020,Confirmed,Influenza - Avian,H5 LPAI,"environmental sample, unspecified bird",0,0,0,0,0,,0,,
265111,OIE,21.2052,106.1426,Asia,Viet Nam,Bac Ninh,Viet Thong,Exact,09/02/2020,12/02/2020,Confirmed,Influenza - Avian,H5N6 HPAI,"domestic, unspecified bird",4256,500,500,3756,,,,,
265110,OIE,21.2133,106.0615,Asia,Viet Nam,Bac Ninh,Hoa Long,Exact,05/02/2020,12/02/2020,Confirmed,Influenza - Avian,H5N6 HPAI,"domestic, unspecified bird",4475,500,500,3975,,,,,
264896,EC,53.5,20.183333,Europe,Poland,Warminsko-Mazurskie,Zybultowo,Centroid Locality,,08/02/2020,Confirmed,Influenza - Avian,H5N8 HPAI,"domestic, turkey",17060,,,,,,,,
264857,OIE,19.1361,105.654,Asia,Viet Nam,Nghe An,Quynh Ba,Exact,10/02/2020,10/02/2020,Confirmed,Influenza - Avian,H5N6 HPAI,"domestic, unspecified bird",55,15,15,40,,,,,
264856,OIE,19.161,105.6511,Asia,Viet Nam,Nghe An,Quynh Hau,Exact,10/02/2020,10/02/2020,Confirmed,Influenza - Avian,H5N6 HPAI,"domestic, unspecified bird",58,20,20,38,,,,,
264855,OIE,19.7354,105.6465,Asia,Viet Nam,Thanh Hoa,Tan Tho,Exact,07/02/2020,10/02/2020,Confirmed,Influenza - Avian,H5N6 HPAI,"domestic, unspecified bird",1485,100,100,1385,,,,,
264854,OIE,20.9335,105.6588,Asia,Viet Nam,Ha Tay,Phu Nghia,Exact,03/02/2020,10/02/2020,Confirmed,Influenza - Avian,H5N6 HPAI,"domestic, unspecified bird",2397,1860,1860,537,,,,,
264851,OIE,49.16,9.44,Europe,Germany,Baden-Wuerttemberg,Bretzfeld,Exact,06/02/2020,10/02/2020,Confirmed,Influenza - Avian,H5N8 HPAI,"domestic, unspecified bird",69,44,44,25,,,,,
264845,OIE,25.03067,121.48937,Asia,Taiwan (Province of China),Taiwan Sheng,Wanhua District,Exact,10/01/2020,10/02/2020,Confirmed,Influenza - Avian,H5N5 HPAI,"domestic, chicken",15,1,,15,,,,,
264844,National authorities,31.05944,105.87055,Asia,China,Sichuan Sheng,Qingzaigong Village,Exact,02/02/2020,09/02/2020,Confirmed,Influenza - Avian,H5N6 HPAI,"domestic, unspecified bird",2497,1840,1840,657,,,0,,
264843,OIE,19.1436,105.6392,Asia,Viet Nam,Nghe An,Quynh Hong,Exact,07/02/2020,09/02/2020,Confirmed,Influenza - Avian,H5N6 HPAI,"domestic, unspecified bird",231,105,105,126,,,,,
264842,OIE,19.656,105.771,Asia,Viet Nam,Thanh Hoa,Quang Truong,Exact,04/02/2020,09/02/2020,Confirmed,Influenza - Avian,H5N6 HPAI,"domestic, unspecified bird",3280,800,800,2480,,,,,
264841,OIE,19.718,105.6479,Asia,Viet Nam,Thanh Hoa,Tan Khang,Exact,03/02/2020,09/02/2020,Confirmed,Influenza - Avian,H5N6 HPAI,"domestic, unspecified bird",12294,375,375,11919,,,,,
264828,National authorities,22.408705,114.057637,Asia,"Hong Kong, SAR",Administrative unit not available,Administrative unit not available,Centroid Admin1,04/02/2020,07/02/2020,Confirmed,Influenza - Avian,H9 LPAI,,,,,,,Male,7,1,
264424,OIE,52.076389,16.098611,Europe,Poland,Wielkopolskie,Stary Widzim,Exact,28/01/2020,03/02/2020,Confirmed,Influenza - Avian,H5N8 HPAI,"domestic, unspecified bird",36183,9063,1017,35166,,,,,
264423,OIE,52.607222,16.432778,Europe,Poland,Wielkopolskie,Zapust,Exact,22/01/2020,22/01/2020,Confirmed,Influenza - Avian,H5N8 HPAI,"domestic, unspecified bird",37563,7748,1500,36063,,,,,
264422,OIE,51.717222,17.851111,Europe,Poland,Wielkopolskie,Slaborowice,Exact,22/01/2020,22/01/2020,Confirmed,Influenza - Avian,H5N8 HPAI,"domestic, unspecified bird",165,165,10,155,,,,,
264421,OIE,51.674722,17.747778,Europe,Poland,Wielkopolskie,Radlow,Exact,21/01/2020,22/01/2020,Confirmed,Influenza - Avian,H5N8 HPAI,"domestic, unspecified bird",161,161,133,28,,,,,
264420,OIE,25.594403,45.656965,Asia,Saudi Arabia,Riyad,Sudair,Exact,30/01/2020,04/02/2020,Confirmed,Influenza - Avian,H5N8 HPAI,"domestic, unspecified bird",408000,22700,22700,385300,,,,,
264419,OIE,21.3586,107.5415,Asia,Viet Nam,Quang Ninh,Duc Yen,Exact,18/01/2020,04/02/2020,Confirmed,Influenza - Avian,H5N6 HPAI,"domestic, unspecified bird",3000,2500,2200,300,,,,,
264345,EC,50.200556,18.412778,Europe,Poland,Slaskie,Ruda Kozielska,Centroid Locality,29/01/2020,31/01/2020,Confirmed,Influenza - Avian,H5N8 HPAI,"domestic, chicken",63,,,,,,,,
264307,OIE,31.734448,34.997686,Asia,Israel,Jerusalem,Jerusalem,Centroid Admin1,27/01/2020,01/02/2020,Confirmed,Influenza - Avian,H5N8 HPAI,"wild,accipitridae (accipitridae))",,1,,,,,,,
264295,OIE,27.37166,111.93861,Asia,China,Hunan Sheng,Jilong village,Exact,01/02/2020,02/02/2020,Confirmed,Influenza - Avian,H5N1 HPAI,"domestic, chicken",7850,4500,4500,3350,,,0,,
264283,OIE,49.348332,18.9549611,Europe,Slovakia,Zilna,Stará Bystrica,Exact,28/01/2020,28/01/2020,Confirmed,Influenza - Avian,H5N8 HPAI,"domestic, unspecified bird",10,4,4,6,,,,,
264276,OIE,56.9636,9.9899,Europe,Denmark,Nordjylland,Sæderup,Exact,27/01/2020,30/01/2020,Confirmed,Influenza - Avian,H5N1 LPAI,"domestic, chicken",48000,,,,,,,,
264165,OIE,-34.1,21.5,Africa,South Africa,Western Cape,HPAI_H5N8_2017_213,Exact,25/11/2019,13/12/2019,Confirmed,Influenza - Avian,H5N8 HPAI,"domestic, ostrich",590,4,,,,,,,
264110,OIE,48.781086,18.577339,Europe,Slovakia,Trencin,Bojnice,Exact,24/01/2020,27/01/2020,Confirmed,Influenza - Avian,H5N8 HPAI,"wild, silver teal , wild, eurasian spoonbill, wild, anatidae, wild, duck",9,9,9,,,,,,
263828,OIE,25.03067,121.48937,Asia,Taiwan (Province of China),Taiwan Sheng,Wanhua District,Exact,11/01/2020,22/01/2020,Confirmed,Influenza - Avian,H5N5 HPAI,"domestic, chicken",19,1,,19,,,,,
263827,OIE,25.03067,121.48937,Asia,Taiwan (Province of China),Taiwan Sheng,Wanhua District,Exact,10/01/2020,22/01/2020,Confirmed,Influenza - Avian,H5N5 HPAI,"domestic, chicken",5,1,,5,,,,,
263826,OIE,48.322524,17.488937,Europe,Slovakia,Trnava,Cífer,Exact,17/01/2020,21/01/2020,Confirmed,Influenza - Avian,H5N8 HPAI,"domestic, unspecified bird",19,4,,15,,,,,
263825,OIE,47.68622,17.987319,Europe,Hungary,Komarom-esztergom,Ács,Exact,15/01/2020,22/01/2020,Confirmed,Influenza - Avian,H5N8 HPAI,"domestic, turkey",34000,,,,,,,,
263824,OIE,47.690195,17.995825,Europe,Hungary,Komarom-esztergom,Ács,Exact,10/01/2020,22/01/2020,Confirmed,Influenza - Avian,H5N8 HPAI,"domestic, turkey",20000,,,,,,,,
263823,OIE,51.214798,15.969198,Europe,Poland,Dolnoslaskie,Strupice,Exact,17/01/2020,22/01/2020,Confirmed,Influenza - Avian,H5N8 HPAI,"domestic, unspecified bird",549,47,41,508,,,,,
263822,OIE,51.6164,17.8178,Europe,Poland,Wielkopolskie,Ostrow Wielkopolski,Exact,01/01/2020,22/01/2020,Confirmed,Influenza - Avian,H5N8 HPAI,"domestic, unspecified bird",6621,6621,2313,4308,,,,,
263821,OIE,23.591721,120.254411,Asia,Taiwan (Province of China),Taiwan Sheng,Shuilin Township,Exact,14/01/2020,22/01/2020,Confirmed,Influenza - Avian,H5N2 HPAI,"domestic, turkey",551,147,147,404,,,,,
263820,OIE,24.393,120.59933,Asia,Taiwan (Province of China),Taiwan Sheng,Da’an District,Exact,13/01/2020,22/01/2020,Confirmed,Influenza - Avian,H5N2 HPAI,"domestic, chicken",2145,105,105,2040,,,,,
263819,OIE,23.8547,120.42009,Asia,Taiwan (Province of China),Taiwan Sheng,Zhutang Township,Exact,13/01/2020,22/01/2020,Confirmed,Influenza - Avian,H5N2 HPAI,"domestic, chicken",23878,2500,2500,21378,,,,,
263818,OIE,23.677501,120.328694,Asia,Taiwan (Province of China),Taiwan Sheng,Yuanchang Township,Exact,07/01/2020,20/01/2020,Confirmed,Influenza - Avian,H5N2 HPAI,"domestic, chicken",15083,1033,1033,14050,,,,,
263817,OIE,23.782676,120.509029,Asia,Taiwan (Province of China),Taiwan Sheng,Citong Township,Exact,04/01/2020,20/01/2020,Confirmed,Influenza - Avian,H5N2 HPAI,"domestic, chicken",8155,1178,1178,6977,,,,,
263816,OIE,25.03067,121.48937,Asia,Taiwan (Province of China),Taiwan Sheng,Wanhua District,Exact,01/01/2020,20/01/2020,Confirmed,Influenza - Avian,H5N2 HPAI,"domestic, chicken",20,2,,20,,,,,
263775,National authorities,44.3054,86.0804,Asia,China,Xinjiang Uygur Zizhiqu,Shihezi,Centroid Locality,,21/01/2020,Confirmed,Influenza - Avian,H5N6 HPAI,"wild,mute swan (cygnus olor))",150,19,19,,,,,,
263768,National authorities,44.016667,87.516667,Asia,China,Xinjiang Uygur Zizhiqu,Changji City,Centroid Locality,,20/01/2020,Confirmed,Influenza - Avian,H5N6 HPAI,"wild,mute swan (cygnus olor))",800,,13,,,,,,
263766,National authorities,51.683333,14.4,Europe,Germany,Brandenburg,Spree-Neiße,Centroid Locality,,20/01/2020,Confirmed,Influenza - Avian,H5N8 HPAI,"wild, goose",,1,1,,,,0,,
263759,Other,29.3,30.833333,Africa,Egypt,Fayoum,Fayoum,Centroid Locality,05/01/2019,02/12/2019,Confirmed,Influenza - Avian,H5N2 HPAI,"domestic, chicken",10000,,500,,,,0,,
263758,Other,30.61,30.43,Africa,Egypt,Behera,Beheira,Centroid Locality,19/01/2019,02/12/2019,Confirmed,Influenza - Avian,H5N2 HPAI,"domestic, chicken",17000,,7990,,,,,,
263756,OIE,48.9001,28.9558,Europe,Ukraine,Vinnyts'ka,Buhakiv,Exact,18/01/2020,20/01/2020,Confirmed,Influenza - Avian,H5 HPAI,"domestic, unspecified bird",98000,4856,4856,,,,,,
263745,OIE,-33.5,22.2,Africa,South Africa,Western Cape,HPAI_H5N8_2017_215,Exact,30/10/2019,20/01/2020,Confirmed,Influenza - Avian,H5N8 HPAI,"domestic, ostrich",4309,8,,,,,,,
263744,OIE,-33.5,22.2,Africa,South Africa,Western Cape,HPAI_H5N8_2017_214,Exact,30/10/2019,20/01/2020,Confirmed,Influenza - Avian,H5N8 HPAI,"domestic, ostrich",3268,2,,,,,0,,
263743,OIE,47.72981,23.30756,Europe,Romania,Maramures,Seini,Exact,16/01/2020,18/01/2020,Confirmed,Influenza - Avian,H5N8 HPAI,"domestic, unspecified bird",22762,22762,220,22542,,,,,
263742,OIE,49.4991,16.3327,Europe,Czech Republic,Jihomoravsky,Stepanov nad Svratkou,Exact,17/01/2020,20/01/2020,Confirmed,Influenza - Avian,H5N8 HPAI,"domestic, unspecified bird",15,6,6,6,,,,,
263658,EC,51.7175,17.8514,Europe,Poland,Wielkopolskie,Slaborowice,Exact,14/01/2020,16/01/2020,Confirmed,Influenza - Avian,H5N8 HPAI,"domestic, goose",19594,19594,54,19540,,,0,,
263654,National authorities,42.2104,86.2599,Asia,China,Xinjiang Uygur Zizhiqu,Swan Bay Scenic Spot of Xinjiang Production and Construction Corps,Centroid Locality,09/01/2020,16/01/2020,Confirmed,Influenza - Avian,H5N6 HPAI,"wild,mute swan (cygnus olor))",75,1,1,,,,0,,
263636,National authorities,52.24865,18.815717,Europe,Poland,Wielkopolskie,Zalesie,Centroid Admin2,13/01/2020,14/01/2020,Confirmed,Influenza - Avian,H5N8 HPAI,"domestic, goose, domestic, chicken",5615,2383,125,5490,,,0,,
263635,National authorities,52.886944,14.797222,Europe,Poland,Zachodnio-Pomorskie,Ferma Roscin,Exact,10/01/2020,14/01/2020,Confirmed,Influenza - Avian,H5N8 HPAI,"domestic, turkey",22629,6480,600,22029,,,0,,
263626,OIE,47.387114,21.911849,Europe,Hungary,Hajdu-bihar,Létavértes,Exact,10/01/2020,15/01/2020,Confirmed,Influenza - Avian,H5N8 HPAI,"domestic, duck",115548,,10449,,,,0,,
263625,OIE,47.731084,23.303372,Europe,Romania,Maramures,Seini,Exact,13/01/2020,14/01/2020,Confirmed,Influenza - Avian,H5N8 HPAI,"domestic, unspecified bird",18699,18699,11190,7509,,,,,
263594,OIE,23.648401,120.474342,Asia,Taiwan (Province of China),Taiwan Sheng,Dounan Township,Exact,28/12/2019,13/01/2020,Confirmed,Influenza - Avian,H5N2 HPAI,"domestic, chicken",23411,2432,2432,20979,,,,,
263593,OIE,23.766401,120.264221,Asia,Taiwan (Province of China),Taiwan Sheng,Mailiao Township,Exact,31/12/2019,13/01/2020,Confirmed,Influenza - Avian,H5N5 HPAI,"domestic, chicken",10784,1000,1000,9784,,,,,
263592,OIE,25.03067,121.48937,Asia,Taiwan (Province of China),Taiwan Sheng,Wanhua District,Exact,28/12/2019,13/01/2020,Confirmed,Influenza - Avian,H5N5 HPAI,"domestic, chicken",24,1,,24,,,,,
263591,OIE,25.03067,121.48937,Asia,Taiwan (Province of China),Taiwan Sheng,Wanhua District,Exact,27/12/2019,13/01/2020,Confirmed,Influenza - Avian,H5N5 HPAI,"domestic, chicken",87,8,,87,,,,,
263564,OIE,47.687049,17.989846,Europe,Hungary,Komarom-esztergom,Ács,Exact,09/01/2020,13/01/2020,Confirmed,Influenza - Avian,H5N8 HPAI,"domestic, turkey",53500,4500,,,,,,,
263563,OIE,51.471667,22.941944,Europe,Poland,Lubeiskie,Stary U cimów,Centroid Locality,06/01/2020,07/01/2020,Confirmed,Influenza - Avian,H5N8 HPAI,"wild, hawk",,1,1,,,,,,
263562,OIE,48.377098,18.008413,Europe,Slovakia,Nitra,Zbehy,Exact,09/01/2020,10/01/2020,Confirmed,Influenza - Avian,H5N8 HPAI,"domestic, unspecified bird",22,3,3,19,,,,,
263459,OIE,44.87265,82.06008,Asia,China,Xinjiang Uygur Zizhiqu,Binhe Park,Exact,02/01/2020,08/01/2020,Confirmed,Influenza - Avian,H5N6 HPAI,"wild,mute swan (cygnus olor))",75,6,6,,,,0,,
263337,OIE,43.64458,81.86883,Asia,China,Xinjiang Uygur Zizhiqu,Sala Village,Exact,29/12/2019,08/01/2020,Confirmed,Influenza - Avian,H5N6 HPAI,"wild,mute swan (cygnus olor))",75,9,9,,,,0,,
263328,OIE,25.03067,121.48937,Asia,Taiwan (Province of China),Taiwan Sheng,Wanhua District,Exact,21/12/2019,06/01/2020,Confirmed,Influenza - Avian,H5N2 HPAI,"domestic, chicken",54,2,,54,,,,,
263327,OIE,23.63233,120.20531,Asia,Taiwan (Province of China),Taiwan Sheng,Sihu Township,Exact,18/12/2019,06/01/2020,Confirmed,Influenza - Avian,H5N2 HPAI,"domestic, duck",3071,,,3071,,,,,
263326,OIE,25.03067,121.48937,Asia,Taiwan (Province of China),Taiwan Sheng,Wanhua District,Exact,17/12/2019,06/01/2020,Confirmed,Influenza - Avian,H5N2 HPAI,"domestic, chicken",78,8,,78,,,,,
263325,OIE,23.08524,120.33243,Asia,Taiwan (Province of China),Taiwan Sheng,Xinshi District,Exact,26/12/2019,06/01/2020,Confirmed,Influenza - Avian,H5N5 HPAI,"domestic, chicken",10265,2056,2056,8209,,,,,
263307,OIE,51.4792,22.9772,Europe,Poland,Lubeiskie,Drozdowka,Exact,04/01/2020,07/01/2020,Confirmed,Influenza - Avian,H5N8 HPAI,"domestic, unspecified bird",24000,20,20,23980,,,,,
263306,OIE,50.9183,23.1756,Europe,Poland,Lubeiskie,Wolka Orlowska,Exact,03/01/2020,07/01/2020,Confirmed,Influenza - Avian,H5N8 HPAI,"domestic, unspecified bird",36,19,1,35,,,,,
263305,OIE,51.4708,22.9508,Europe,Poland,Lubeiskie,Stary Uscimow,Exact,03/01/2020,07/01/2020,Confirmed,Influenza - Avian,H5N8 HPAI,"domestic, unspecified bird",13186,2500,1550,11636,,,,,
263304,OIE,50.9258,22.9031,Europe,Poland,Lubeiskie,Olchowiec Kolonia,Exact,02/01/2020,07/01/2020,Confirmed,Influenza - Avian,H5N8 HPAI,"domestic, unspecified bird",43,10,7,36,,,,,
263303,OIE,51.4725,22.9564,Europe,Poland,Lubeiskie,Stary Uscimow,Exact,01/01/2020,07/01/2020,Confirmed,Influenza - Avian,H5N8 HPAI,"domestic, unspecified bird",12960,500,500,12460,,,,,
263302,OIE,51.6161,17.7656,Europe,Poland,Wielkopolskie,Topola Osiedle,Exact,31/12/2019,07/01/2020,Confirmed,Influenza - Avian,H5N8 HPAI,"domestic, unspecified bird",36069,36069,1261,34808,,,0,,
263301,OIE,51.4728,22.9539,Europe,Poland,Lubeiskie,Stary Uscimow,Exact,31/12/2019,07/01/2020,Confirmed,Influenza - Avian,H5N8 HPAI,"domestic, unspecified bird",20600,18900,18900,1700,,,,,
263300,OIE,51.4711,22.9519,Europe,Poland,Lubeiskie,Stary Uscimow,Exact,31/12/2019,07/01/2020,Confirmed,Influenza - Avian,H5N8 HPAI,"domestic, unspecified bird",9500,3000,120,9380,,,,,
263294,OIE,23.438331,120.189036,Asia,Taiwan (Province of China),Taiwan Sheng,Dongshi Township,Exact,24/01/2015,07/01/2020,Confirmed,Influenza - Avian,H5N2 LPAI,"domestic, chicken",36295,930,930,35365,,,0,,
263293,OIE,25.0875,121.22083,Asia,Taiwan (Province of China),Taiwan Sheng,Dayuan District,Exact,23/01/2015,07/01/2020,Confirmed,Influenza - Avian,H5N2 LPAI,"domestic, chicken",22000,1000,1000,21000,,,,,
263290,OIE,23.2621,82.5605,Asia,India,Chhattisgarh,Government Poultry Farming Region,Exact,07/12/2019,08/01/2020,Confirmed,Influenza - Avian,H5N1 HPAI,"domestic, unspecified bird",21060,5634,5634,15426,,,0,,
263289,OIE,23.579715,120.402307,Asia,Taiwan (Province of China),Taiwan Sheng,Xikou Township,Exact,20/12/2019,03/01/2020,Confirmed,Influenza - Avian,H5N2 HPAI,"domestic, turkey",3114,1000,1000,2114,,,,,
263288,OIE,23.215244,120.194597,Asia,Taiwan (Province of China),Taiwan Sheng,Xuejia District,Exact,17/12/2019,03/01/2020,Confirmed,Influenza - Avian,H5N2 HPAI,"domestic, chicken",15399,2055,2055,13344,,,,,
263287,OIE,23.48408,120.339258,Asia,Taiwan (Province of China),Taiwan Sheng,Taibao City,Exact,17/12/2019,03/01/2020,Confirmed,Influenza - Avian,H5N2 HPAI,"domestic, goose",1862,222,222,1640,,,,,
263286,OIE,24.178389,120.486722,Asia,Taiwan (Province of China),Taiwan Sheng,Shengang Township,Exact,16/12/2019,03/01/2020,Confirmed,Influenza - Avian,H5N2 HPAI,"domestic, unspecified bird",1224,329,329,895,,,,,
263285,OIE,23.750817,120.374588,Asia,Taiwan (Province of China),Taiwan Sheng,Lunbei Township,Exact,16/12/2019,03/01/2020,Confirmed,Influenza - Avian,H5N2 HPAI,"domestic, chicken",12698,914,914,11784,,,,,
263284,OIE,23.753332,120.231782,Asia,Taiwan (Province of China),Taiwan Sheng,Taixi Township,Exact,16/12/2019,03/01/2020,Confirmed,Influenza - Avian,H5N2 HPAI,"domestic, chicken",7612,567,567,7045,,,,,
263283,OIE,25.03067,121.48937,Asia,Taiwan (Province of China),Taiwan Sheng,Wanhua District,Exact,15/12/2019,03/01/2020,Confirmed,Influenza - Avian,H5N5 HPAI,"domestic, chicken",10,1,,10,,,,,
263282,OIE,22.73075,120.530416,Asia,Taiwan (Province of China),Taiwan Sheng,Yanpu Township,Exact,12/12/2019,03/01/2020,Confirmed,Influenza - Avian,H5N5 HPAI,"domestic, chicken",18018,1708,1708,16310,,,,,
263226,OIE,25.03067,121.48937,Asia,Taiwan (Province of China),Taiwan Sheng,Wanhua District,Exact,10/11/2019,22/11/2019,Confirmed,Influenza - Avian,H5N2 HPAI,"domestic, chicken",10,1,,10,,,,,
263222,National authorities,36.783333,126.45,Asia,Republic of Korea,Chungchongnam-do,Seosan,Centroid Locality,23/12/2019,02/01/2020,Confirmed,Influenza - Avian,LPAI,"environmental sample, unspecified bird",,1,,,,,,,
263070,OIE,23.737452,120.228941,Asia,Taiwan (Province of China),Taiwan Sheng,Taixi Township,Exact,29/10/2019,12/11/2019,Confirmed,Influenza - Avian,H5N2 HPAI,"domestic, chicken",6217,3880,3880,2337,,,,,
263067,OIE,51.47,22.9528,Europe,Poland,Lubeiskie,Stary Uscimow,Exact,30/12/2019,02/01/2020,Confirmed,Influenza - Avian,H5N8 HPAI,"domestic, turkey",12089,12089,12089,,,,,,
262842,National authorities,34.65,135.783333,Asia,Japan,Nara,Yamatokoriyama City,Centroid Locality,25/11/2019,09/12/2019,Confirmed,Influenza - Avian,H5N3 LPAI,"environmental sample, unspecified bird",,,,,,,0,,
262841,National authorities,36.304472,140.015528,Asia,Japan,Ibaraki,Otawara City,Centroid Locality,25/11/2019,04/12/2019,Confirmed,Influenza - Avian,H5N3 LPAI,"environmental sample, unspecified bird",0,0,0,0,0,,0,,
262831,FAO Field Officer,-6.066353,106.17596,Asia,Indonesia,Banten,Kilasah,Exact,,20/11/2019,Confirmed,Influenza - Avian,H5N1 HPAI,"domestic, duck",,,17,,,,,,
262830,FAO Field Officer,-6.066353,106.17596,Asia,Indonesia,Banten,Kilasah,Exact,,20/11/2019,Confirmed,Influenza - Avian,H5N1 HPAI,"domestic, chicken",,,24,,,,,,
262829,FAO Field Officer,-6.066353,106.17596,Asia,Indonesia,Banten,Kilasah,Exact,,20/11/2019,Confirmed,Influenza - Avian,H5N1 HPAI,"domestic, muscovy ducks",,,59,,,,,,
262828,FAO Field Officer,-7.914561,112.531354,Asia,Indonesia,Jawa Timur,Tlekung,Exact,,22/10/2019,Confirmed,Influenza - Avian,H5N1 HPAI,"domestic, duck",,,200,,,,,,
262827,FAO Field Officer,-5.415057,105.309027,Asia,Indonesia,Lampung,Campang Raya,Exact,,10/02/2019,Confirmed,Influenza - Avian,H5N1 HPAI,"domestic, chicken",,,10,,,,,,
262826,FAO Field Officer,-7.591536,110.707725,Asia,Indonesia,Jawa Tengah,Sanggung,Exact,,25/01/2019,Confirmed,Influenza - Avian,H5N1 HPAI,"domestic, chicken",,,71,,,,,,
262825,FAO Field Officer,-7.591536,110.707725,Asia,Indonesia,Jawa Tengah,Sanggung,Exact,,25/01/2019,Confirmed,Influenza - Avian,H5N1 HPAI,"domestic, muscovy ducks",,,163,,,,,,
262824,FAO Field Officer,-2.513163,115.425809,Asia,Indonesia,Kalimantan Selatan,Labunganak,Exact,,25/03/2019,Confirmed,Influenza - Avian,H5N1 HPAI,"domestic, chicken",,,65,,,,,,
262823,FAO Field Officer,-6.538804,107.765905,Asia,Indonesia,Jawa Barat,Sukamelang,Exact,,08/10/2018,Confirmed,Influenza - Avian,H5N1 HPAI,"domestic, duck",,,500,,,,,,
262822,FAO Field Officer,-6.368349,107.785443,Asia,Indonesia,Jawa Barat,Mulyasari,Exact,,08/10/2018,Confirmed,Influenza - Avian,H5N1 HPAI,"domestic, chicken",,,40,,,,,,
262821,FAO Field Officer,-6.552034,107.73266,Asia,Indonesia,Jawa Barat,Dangdeur,Exact,,04/10/2018,Confirmed,Influenza - Avian,H5N1 HPAI,"domestic, muscovy ducks",,,14,,,,,,
262820,FAO Field Officer,0.808344,124.562707,Asia,Indonesia,Sulawesi Utara,Tombolikat Selatan,Exact,,06/07/2018,Confirmed,Influenza - Avian,H5N1 HPAI,"domestic, chicken",,,145,,,,,,
262819,FAO Field Officer,0.772214,124.501157,Asia,Indonesia,Sulawesi Utara,Tutuyan,Exact,,06/07/2018,Confirmed,Influenza - Avian,H5N1 HPAI,"domestic, duck",,,2,,,,,,
262818,FAO Field Officer,0.800692,124.539021,Asia,Indonesia,Sulawesi Utara,Tutuyan III,Exact,,06/07/2018,Confirmed,Influenza - Avian,H5N1 HPAI,"domestic, chicken",,,9,,,,,,
262817,FAO Field Officer,0.821782,124.551907,Asia,Indonesia,Sulawesi Utara,Kayumoyondi,Exact,,05/07/2018,Confirmed,Influenza - Avian,H5N1 HPAI,"domestic, chicken",,,161,,,,,,
262816,FAO Field Officer,-6.72484,107.804405,Asia,Indonesia,Jawa Barat,Sindanglaya,Exact,,30/06/2018,Confirmed,Influenza - Avian,H5N1 HPAI,"domestic, duck",,,150,,,,,,
262815,FAO Field Officer,0.737523,124.361287,Asia,Indonesia,Sulawesi Utara,Liberia,Exact,,20/05/2018,Confirmed,Influenza - Avian,H5N1 HPAI,"domestic, chicken",,,65,,,,,,
262814,FAO Field Officer,0.677618,124.289078,Asia,Indonesia,Sulawesi Utara,Bangunan Wuwuk,Exact,,20/05/2018,Confirmed,Influenza - Avian,H5N1 HPAI,"domestic, chicken",,,3,,,,,,
262813,FAO Field Officer,0.982122,124.788964,Asia,Indonesia,Sulawesi Utara,Tababo,Exact,,19/05/2018,Confirmed,Influenza - Avian,H5N1 HPAI,"domestic, chicken",,,246,,,,,,
262812,FAO Field Officer,0.694234,124.389818,Asia,Indonesia,Sulawesi Utara,Candi Rejo,Exact,,15/05/2018,Confirmed,Influenza - Avian,H5N1 HPAI,"domestic, chicken",,,45,,,,,,
262811,FAO Field Officer,0.525333,101.446477,Asia,Indonesia,Riau,Tuah Negeri,Exact,,07/05/2018,Confirmed,Influenza - Avian,H5N1 HPAI,"domestic, quail",,,700,,,,,,
262810,FAO Field Officer,-0.322264,100.482213,Asia,Indonesia,Sumatera Barat,Tanjuang Alam,Exact,,19/04/2018,Confirmed,Influenza - Avian,H5N1 HPAI,"domestic, chicken",,,19,,,,,,
262809,FAO Field Officer,-0.834706,101.326769,Asia,Indonesia,Sumatera Barat,Kunangan Parit Rantang,Exact,,18/04/2018,Confirmed,Influenza - Avian,H5N1 HPAI,"domestic, chicken",,,50,,,,,,
262808,FAO Field Officer,-0.834706,101.326769,Asia,Indonesia,Sumatera Barat,Kunangan Parit Rantang,Exact,,09/04/2018,Confirmed,Influenza - Avian,H5N1 HPAI,"domestic, chicken",,,600,,,,,,
262771,FAO Field Officer,-6.066353,106.17596,Asia,Indonesia,Banten,Kilasah,Exact,,20/11/2019,Confirmed,Influenza - Avian,H5N1 HPAI,"domestic, chicken",,,24,,,,0,,
262770,FAO Field Officer,-6.066353,106.17596,Asia,Indonesia,Banten,Kilasah,Exact,,20/11/2019,Confirmed,Influenza - Avian,H5N1 HPAI,"domestic, muscovy ducks",,,59,,,,0,,
262762,FAO Field Officer,-6.066353,106.17596,Asia,Indonesia,Banten,Kilasah,Exact,,20/11/2019,Confirmed,Influenza - Avian,H5N1 HPAI,"domestic, duck",,,17,,,,0,,
262761,FAO Field Officer,-6.066353,106.17596,Asia,Indonesia,Banten,Kilasah,Exact,,20/11/2019,Confirmed,Influenza - Avian,H5N1 HPAI,"domestic, chicken",,,24,,,,0,,
262759,FAO Field Officer,-6.066353,106.17596,Asia,Indonesia,Banten,Kilasah,Exact,,20/11/2019,Confirmed,Influenza - Avian,H5N1 HPAI,"domestic, muscovy ducks",,,59,,,,0,,
262758,FAO Field Officer,-7.914561,112.531354,Asia,Indonesia,Jawa Timur,Tlekung,Exact,,22/10/2019,Confirmed,Influenza - Avian,H5N1 HPAI,"domestic, duck",,,200,,,,0,,
262697,OIE,19.407489,-71.110467,Americas,Dominican Republic,Santiago,Santiago,Exact,31/08/2019,19/12/2019,Confirmed,Influenza - Avian,H5N2 LPAI,"domestic, chicken",18000,690,690,,,,,,
262696,OIE,19.5085,-70.6884,Americas,Dominican Republic,Santiago,Santiago,Exact,31/08/2019,19/12/2019,Confirmed,Influenza - Avian,H5N2 LPAI,"domestic, chicken",300,65,65,,,,,,
262695,OIE,19.281067,-70.529276,Americas,Dominican Republic,La Vega,La Vega,Exact,03/07/2019,19/12/2019,Confirmed,Influenza - Avian,H5N2 LPAI,"domestic, chicken",51000,1,,,,,,,
262694,OIE,19.134026,-70.6004,Americas,Dominican Republic,La Vega,La Vega,Exact,02/07/2019,19/12/2019,Confirmed,Influenza - Avian,H5N2 LPAI,"domestic, chicken",18650,15,,,,,,,
262693,OIE,19.339717,-70.479153,Americas,Dominican Republic,Espaillat,Espaillat,Exact,24/06/2019,19/12/2019,Confirmed,Influenza - Avian,H5N2 LPAI,"domestic, chicken",8000,1,,,,,,,
262692,OIE,19.40178,-70.6131,Americas,Dominican Republic,Santiago,Santiago,Exact,19/06/2019,19/12/2019,Confirmed,Influenza - Avian,H5N2 LPAI,"domestic, chicken",40883,3250,3250,,,,,,
262691,OIE,19.22935,-70.27091,Americas,Dominican Republic,Duarte,Espaillat,Exact,19/06/2019,19/12/2019,Confirmed,Influenza - Avian,H5N2 LPAI,"domestic, chicken",28000,5,,,,,,,
262690,OIE,19.3272,-70.6017,Americas,Dominican Republic,La Vega,La Vega,Exact,15/06/2019,19/12/2019,Confirmed,Influenza - Avian,H5N2 LPAI,"domestic, chicken",25000,8131,8131,,,,,,
262689,OIE,19.44316,-70.49355,Americas,Dominican Republic,Espaillat,Moca,Exact,10/06/2019,19/12/2019,Confirmed,Influenza - Avian,H5N2 LPAI,"domestic, chicken",5000,1700,1700,3300,,,,,
262688,OIE,19.439167,-70.477222,Americas,Dominican Republic,Espaillat,Espaillat,Exact,29/05/2019,19/12/2019,Confirmed,Influenza - Avian,H5N2 LPAI,"domestic, chicken",6500,12,12,,,,,,
262687,OIE,19.40678,-70.48358,Americas,Dominican Republic,Espaillat,Espaillat,Exact,27/05/2019,19/12/2019,Confirmed,Influenza - Avian,H5N2 LPAI,"domestic, chicken",14200,29,,,,,,,
262686,OIE,19.33736,-70.512705,Americas,Dominican Republic,La Vega,La Vega,Exact,11/02/2019,19/12/2019,Confirmed,Influenza - Avian,H5N2 LPAI,"domestic, chicken",900,19,,,,,,,
262678,National authorities,21.45,77.145,Asia,India,Maharashtra,Melghat District,Unknown,31/01/2019,17/12/2019,Confirmed,Influenza - Avian,H9N2 LPAI,,,,,,,Male,2,1,
262582,National authorities,22.675494,120.491414,Asia,Taiwan (Province of China),Taiwan Sheng,Pingtung County,Centroid Locality,12/12/2019,18/12/2019,Confirmed,Influenza - Avian,H5N5 HPAI,"domestic, chicken",,,,16310,,,,,
262559,National authorities,52.29,1.24,Europe,U.K. of Great Britain and Northern Ireland,England,Mid Suffolk,Exact,04/12/2019,11/12/2019,Confirmed,Influenza - Avian,H5N3 LPAI,"domestic, chicken",28000,,,,,,0,,
262558,OIE,23.843437,120.304843,Asia,Taiwan (Province of China),Taiwan Sheng,Dacheng Township,Exact,01/12/2019,13/12/2019,Confirmed,Influenza - Avian,H5N2 HPAI,"domestic, chicken",45161,4481,4481,40680,,,,,
262557,OIE,23.691738,120.235827,Asia,Taiwan (Province of China),Taiwan Sheng,Dongshi Township,Exact,30/11/2019,13/12/2019,Confirmed,Influenza - Avian,H5N2 HPAI,"domestic, turkey",1821,339,339,1482,,,,,
262556,OIE,23.718596,120.254268,Asia,Taiwan (Province of China),Taiwan Sheng,Dongshi Township,Exact,28/11/2019,13/12/2019,Confirmed,Influenza - Avian,H5N2 HPAI,"domestic, duck",4413,,,4413,,,,,
262555,OIE,23.848827,120.432819,Asia,Taiwan (Province of China),Taiwan Sheng,Zhutang Township,Exact,27/11/2019,10/12/2019,Confirmed,Influenza - Avian,H5N2 HPAI,"domestic, chicken",26111,1131,1131,24980,,,,,
262554,OIE,23.68523,120.24889,Asia,Taiwan (Province of China),Taiwan Sheng,Dongshi Township,Exact,27/11/2019,10/12/2019,Confirmed,Influenza - Avian,H5N2 HPAI,"domestic, chicken",13270,125,125,13145,,,,,
262553,OIE,23.742805,120.233611,Asia,Taiwan (Province of China),Taiwan Sheng,Taixi Township,Exact,21/11/2019,10/12/2019,Confirmed,Influenza - Avian,H5N2 HPAI,"domestic, duck",5052,,,5052,,,,,
262552,OIE,25.03067,121.48937,Asia,Taiwan (Province of China),Taiwan Sheng,Wanhua District,Exact,21/11/2019,10/12/2019,Confirmed,Influenza - Avian,H5N2 HPAI,"domestic, chicken",32,1,,32,,,,,
262551,OIE,23.70148,120.259075,Asia,Taiwan (Province of China),Taiwan Sheng,Dongshi Township,Exact,18/11/2019,10/12/2019,Confirmed,Influenza - Avian,H5N2 HPAI,"domestic, duck",182,,,182,,,,,
262550,OIE,23.93594,120.34879,Asia,Taiwan (Province of China),Taiwan Sheng,Fangyuan Township,Exact,07/11/2019,10/12/2019,Confirmed,Influenza - Avian,H5N2 HPAI,"domestic, duck",694,,,694,,,,,
262535,National authorities,22.0,105.0,Asia,Viet Nam,Tuyen Quang,Minh Dan ,Centroid Locality,26/11/2019,04/12/2019,Confirmed,Influenza - Avian,H5N6 HPAI,"domestic, unspecified bird",,,,,,,0,,
262534,National authorities,37.566536,126.977969,Asia,Republic of Korea,Seoul,Seocho-gu,Centroid Locality,12/12/2019,16/12/2019,Confirmed,Influenza - Avian,H5 LPAI,"environmental sample, unspecified bird",,1,,,,,,,
262533,National authorities,35.234167,128.881111,Asia,Republic of Korea,Kyongsangnam-do,Gimhae,Centroid Locality,10/12/2019,14/12/2019,Confirmed,Influenza - Avian,H5N9 LPAI,"environmental sample, unspecified bird",,1,,,,,,,
262223,OIE,-34.2,20.9,Africa,South Africa,Western Cape,HPAI_H5N8_2017_212,Exact,14/10/2019,11/12/2019,Confirmed,Influenza - Avian,H5N8 HPAI,"domestic, ostrich",352,6,,,,,,,
262222,OIE,-33.5,22.7,Africa,South Africa,Western Cape,HPAI_H5N8_2017_211,Exact,10/09/2019,11/12/2019,Confirmed,Influenza - Avian,H5N8 HPAI,"domestic, ostrich",435,2,,,,,,,
262203,National authorities,32.041826,117.169105,Asia,China,Anhui Sheng,Anhui Sheng,Centroid Admin1,12/11/2019,10/12/2019,Confirmed,Influenza - Avian,H9N2 LPAI,,,,,,,Female,5,1,
262202,National authorities,25.920724,117.920212,Asia,China,Fujian Sheng,Fujian Sheng,Centroid Admin1,26/10/2019,10/12/2019,Confirmed,Influenza - Avian,H9N2 LPAI,,,,,,,Female,4,1,
262013,National authorities,37.3,126.78,Asia,Republic of Korea,Kyonggi-do,Shiwa lake,Unknown,26/11/2019,02/12/2019,Confirmed,Influenza - Avian,LPAI,"environmental sample, unspecified env. sample, environmental sample, unspecified env. sample",0,0,0,0,0,,0,,
262012,National authorities,36.06,128.077,Asia,Republic of Korea,Kyongsangbuk-do,Gimcheon,Unknown,25/11/2019,02/12/2019,Confirmed,Influenza - Avian,LPAI,"environmental sample, unspecified env. sample",,,,,,,,,
261961,OIE,33.916667,133.183333,Asia,Japan,Ehime,Saijo City,Centroid Locality,19/11/2019,19/11/2019,Confirmed,Influenza - Avian,H7N7 LPAI,"wild, unspecified bird",,2,,,,,,,
261901,OIE,25.03067,121.48937,Asia,Taiwan (Province of China),Taiwan Sheng,Wanhua District,Exact,13/11/2019,29/11/2019,Confirmed,Influenza - Avian,H5N2 HPAI,"domestic, chicken",11,1,,11,,,,,
261680,OIE,12.7464,5.3202,Africa,Nigeria,Sokoto,Sokoto Live Bird Market,Exact,25/06/2019,23/12/2019,Confirmed,Influenza - Avian,H5N6 HPAI,"domestic, unspecified bird",2449,150,,,,,0,,
261526,National authorities,35.5,128.49,Asia,Republic of Korea,Kyongsangnam-do,Changnyeong (Jangcheok Reservoir),Unknown,26/11/2019,28/11/2019,Confirmed,Influenza - Avian,H5 LPAI,"environmental sample, unspecified bird",,,,,,,0,,
261505,National authorities,36.0599,128.077,Asia,Republic of Korea,Kyongsangbuk-do,Gimcheon,Unknown,25/11/2019,27/11/2019,Confirmed,Influenza - Avian,H5 LPAI,"environmental sample, unspecified bird",0,0,0,0,0,,0,,
261457,OIE,25.03067,121.48937,Asia,Taiwan (Province of China),Taiwan Sheng," Wanhua District, Taipei City ",Exact,10/11/2019,22/11/2019,Confirmed,Influenza - Avian,H5N5 HPAI,"domestic, chicken",10,1,0,10,,,,,
261456,OIE,23.68966667,120.2737,Asia,Taiwan (Province of China),Taiwan Sheng,Baozhong Township,Exact,13/11/2019,22/11/2019,Confirmed,Influenza - Avian,H5N2 HPAI,"domestic, chicken",13320,100,100,13220,,,0,,
261452,National authorities,36.0599,128.077,Asia,Republic of Korea,Kyongsangbuk-do,Gimcheon,Unknown,19/11/2019,21/11/2019,Confirmed,Influenza - Avian,H5 LPAI,"environmental sample, unspecified bird, environmental sample, unspecified bird",0,0,0,0,0,,0,,
261451,National authorities,35.51,128.49,Asia,Republic of Korea,Kyongsangnam-do,Changnyeong county,Unknown,19/11/2019,21/11/2019,Confirmed,Influenza - Avian,H5 LPAI,"environmental sample, unspecified bird",,,,,,,0,,
261436,OIE,23.4759,120.27001,Asia,Taiwan (Province of China),Taiwan Sheng,Puzi city,Exact,27/10/2019,20/11/2019,Confirmed,Influenza - Avian,H5 HPAI,"domestic, chicken",3000,2899,2899,101,,,0,,
260811,National authorities,35.83,128.8,Asia,Republic of Korea,Kyongsangbuk-do,"Gyeongsangbuk-do, Gyeongsan",Unknown,04/11/2019,11/11/2019,Confirmed,Influenza - Avian,H5 LPAI,"environmental sample, unspecified bird",,,,,,,0,,
260810,National authorities,35.73,126.73,Asia,Republic of Korea,Chollabuk-do,"Buan (Dongjingang), Jeonbuk",Unknown,05/11/2019,11/11/2019,Confirmed,Influenza - Avian,H5 LPAI,"environmental sample, unspecified bird",0,0,0,0,0,,0,,
260809,National authorities,54.44,61.36,Europe,Russian Federation,Chelyabinskaya Oblast,Uvelsky district ,Unknown,,08/11/2019,Confirmed,Influenza - Avian,H5 LPAI,"wild, unspecified bird",,,,,,,0,,
260624,National authorities,37.866667,127.733333,Asia,Republic of Korea,Kang-won-do,Chuncheon,Exact,28/10/2019,01/11/2019,Confirmed,Influenza - Avian,H5N3 LPAI,"environmental sample, unspecified env. sample",,,,,,,,,
260534,OIE,21.326344,-102.149211,Americas,Mexico,Jalisco,Lagos de Moreno,Exact,08/10/2019,30/10/2019,Confirmed,Influenza - Avian,H7N3 HPAI,"domestic, chicken",712,34,34,678,,,,,
260533,OIE,21.356127,-101.953697,Americas,Mexico,Jalisco,Lagos de Moreno,Exact,30/09/2019,30/10/2019,Confirmed,Influenza - Avian,H7N3 HPAI,"domestic, chicken",389,24,24,365,,,,,
260532,OIE,21.352138,-101.954225,Americas,Mexico,Jalisco,Lagos de Moreno,Exact,30/09/2019,30/10/2019,Confirmed,Influenza - Avian,H7N3 HPAI,"domestic, chicken",310,54,54,256,,,,,
260531,OIE,23.80236,120.23458,Asia,Taiwan (Province of China),Taiwan Sheng,Mailiao Township,Exact,23/10/2019,28/10/2019,Confirmed,Influenza - Avian,H5N2 HPAI,"domestic, duck",1201,,,1201,,,,,
260498,Media,12.31,76.63,Asia,India,Karnataka,Kukkarahalli Lake,Unknown,,29/10/2019,Denied,Influenza - Avian,HPAI,"wild,rose pelican (pelecanus onocrotalus))",,,,,,,0,,
260478,National authorities,36.13985,128.113564,Asia,Republic of Korea,Kyongsangbuk-do,Gimcheon City ,Centroid Locality,23/10/2019,25/10/2019,Confirmed,Influenza - Avian,H5 LPAI,"environmental sample, unspecified bird",,1,,,,,,,
260477,National authorities,37.0,127.266667,Asia,Republic of Korea,Kyonggi-do,Anseong  City ,Centroid Locality,22/10/2019,28/10/2019,Confirmed,Influenza - Avian,H5 LPAI,"environmental sample, unspecified bird",,1,,,,,,,
260476,National authorities,36.633333,127.483333,Asia,Republic of Korea,Chungchongbuk-do,Cheongju City ,Centroid Locality,16/10/2019,17/10/2019,Confirmed,Influenza - Avian,H5 LPAI,"environmental sample, unspecified bird",,1,,,,,,,
260475,National authorities,36.816667,127.166667,Asia,Republic of Korea,Chungchongnam-do,Cheonan City ,Centroid Locality,21/10/2019,23/10/2019,Confirmed,Influenza - Avian,H5 LPAI,"environmental sample, unspecified bird",,1,,,,,,,
260474,National authorities,36.783333,126.983333,Asia,Republic of Korea,Chungchongnam-do,Asan  City ,Centroid Locality,15/10/2019,20/10/2019,Confirmed,Influenza - Avian,H5 LPAI,"environmental sample, unspecified bird",,1,,,,,,,
260463,OIE,-33.8,22.5,Africa,South Africa,Western Cape," HPAI_H5N8_2017_210",Exact,12/09/2019,28/10/2019,Confirmed,Influenza - Avian,H5N8 HPAI,"domestic, ostrich",3114,1,,,,,,,
260144,National authorities,10.533333,106.404167,Asia,Viet Nam,Long An,Tan an,Centroid Locality,12/05/2019,17/05/2019,Confirmed,Influenza - Avian,H5N1 HPAI,"domestic, chicken",1990,1200,540,1990,,,0,,
260143,National authorities,15.785,108.073,Asia,Viet Nam,Quang Nam,An Hoa,Centroid Locality,01/05/2019,05/05/2019,Confirmed,Influenza - Avian,H5N1 HPAI,"domestic, chicken",,1100,,1100,,,0,,
260141,OIE,14.638,107.7006,Asia,Viet Nam,Kon Tum,Dak Kan,Exact,15/10/2019,21/10/2019,Confirmed,Influenza - Avian,H5N6 HPAI,"domestic, unspecified bird",980,980,,980,,,,,
260140,OIE,-32.78932,-71.0556,Americas,Chile,Valparaiso,Romeral,Exact,12/10/2019,17/10/2019,Confirmed,Influenza - Avian,H7N6 LPAI,"domestic, turkey",40029,,,,40029,,0,,
260139,OIE,-32.790952,-71.05211,Americas,Chile,Valparaiso,Los Tilos,Exact,10/10/2019,17/10/2019,Confirmed,Influenza - Avian,H7N6 LPAI,"domestic, turkey",39159,,,,39159,,,,
260138,OIE,19.43802,-70.49075,Americas,Dominican Republic,Espaillat,Espaillat,Exact,02/06/2019,16/10/2019,Confirmed,Influenza - Avian,H5N2 LPAI,"domestic, chicken",25000,11,,,24989,,,,
260137,OIE,19.283733,-70.52733,Americas,Dominican Republic,La Vega,La Vega,Exact,22/05/2019,16/10/2019,Confirmed,Influenza - Avian,H5N2 LPAI,"domestic, chicken",19500,1,,,,,,,
260136,OIE,19.4687,-70.6068,Americas,Dominican Republic,Santiago,Santiago,Exact,08/05/2019,16/10/2019,Confirmed,Influenza - Avian,H5N2 LPAI,"domestic, chicken",247718,5,,,247713,,,,
260135,OIE,18.727289,-70.474608,Americas,Dominican Republic,San José de Ocoa,San José de Ocoa,Exact,23/02/2019,16/10/2019,Confirmed,Influenza - Avian,H5N2 LPAI,"domestic, chicken",45000,7145,2140,37855,,,,,
260134,OIE,19.351238,-70.510951,Americas,Dominican Republic,La Vega,La Vega,Exact,21/02/2019,16/10/2019,Confirmed,Influenza - Avian,H5N2 LPAI,"domestic, chicken",3500,10,5,,3490,,,,
260133,OIE,19.327395,-70.435612,Americas,Dominican Republic,Salcedo,Salcedo,Exact,10/02/2019,16/10/2019,Confirmed,Influenza - Avian,H5N2 LPAI,"domestic, chicken",96963,9,6,,,,,,
260132,OIE,19.44333,-70.51111,Americas,Dominican Republic,Espaillat,Espaillat,Exact,05/02/2019,16/10/2019,Confirmed,Influenza - Avian,H5N2 LPAI,"domestic, chicken",3500,550,550,,2950,,,,
260131,OIE,19.41685,-70.48708,Americas,Dominican Republic,Espaillat,Espaillat,Exact,05/02/2019,16/10/2019,Confirmed,Influenza - Avian,H5N2 LPAI,"domestic, chicken",14170,2330,2330,,10050,,,,
260130,OIE,18.586104,-69.897022,Americas,Dominican Republic,Santo Domingo,Santo Domingo,Exact,24/01/2019,16/10/2019,Confirmed,Influenza - Avian,H5N2 LPAI,"domestic, chicken",50,30,,,,,,,
260129,OIE,19.82096,-70.93549,Americas,Dominican Republic,Puerto Plata,Puerto Plata,Exact,27/12/2018,16/10/2019,Confirmed,Influenza - Avian,H5N2 LPAI,"domestic, chicken",55,7,7,48,,,,,
260115,OIE,21.341652,-102.016175,Americas,Mexico,Jalisco,Lagos de Moreno,Exact,25/09/2019,11/10/2019,Confirmed,Influenza - Avian,H7N3 HPAI,"domestic, unspecified bird",358,41,41,317,,,,,
260114,OIE,21.343291,-102.019369,Americas,Mexico,Jalisco,Lagos de Moreno,Exact,25/09/2019,11/10/2019,Confirmed,Influenza - Avian,H7N3 HPAI,"domestic, unspecified bird",318,26,26,292,,,,,
260113,OIE,21.326344,-102.149211,Americas,Mexico,Jalisco,Lagos de Moreno,Exact,21/09/2019,11/10/2019,Confirmed,Influenza - Avian,H7N3 HPAI,"domestic, unspecified bird",1855,305,305,1550,,,,,
260112,OIE,21.326733,-101.973977,Americas,Mexico,Jalisco,Lagos de Moreno,Exact,18/09/2019,11/10/2019,Confirmed,Influenza - Avian,H7N3 HPAI,"domestic, unspecified bird",452,40,39,413,,,,,
260111,OIE,21.443266,-102.16186,Americas,Mexico,Jalisco,Encarnación de Díaz,Exact,18/09/2019,11/10/2019,Confirmed,Influenza - Avian,H7N3 HPAI,"domestic, unspecified bird",645,100,53,592,,,,,
260110,OIE,21.32843,-101.773891,Americas,Mexico,Jalisco,Lagos de Moreno,Exact,18/09/2019,11/10/2019,Confirmed,Influenza - Avian,H7N3 HPAI,"domestic, unspecified bird",1169,416,416,753,,,,,
259991,OIE,23.738386,120.216324,Asia,Taiwan (Province of China),Taiwan Sheng,Taixi Township,Exact,28/09/2019,14/10/2019,Confirmed,Influenza - Avian,H5N2 HPAI,"domestic, chicken",35336,991,991,34345,,,,,
259990,OIE,21.341652,-102.016175,Americas,Mexico,Jalisco,Lagos de Moreno,Exact,25/09/2019,11/10/2019,Confirmed,Influenza - Avian,H7N3 HPAI,"domestic, unspecified bird",358,41,41,317,,,,,
259989,OIE,21.343291,-102.019369,Americas,Mexico,Jalisco,Lagos de Moreno,Exact,25/09/2019,11/10/2019,Confirmed,Influenza - Avian,H7N3 HPAI,"domestic, unspecified bird",318,26,26,292,,,,,
259988,OIE,21.326344,-102.149211,Americas,Mexico,Jalisco,Lagos de Moreno,Exact,21/09/2019,11/10/2019,Confirmed,Influenza - Avian,H7N3 HPAI,"domestic, unspecified bird",1855,305,305,1550,,,,,
259987,OIE,21.326733,-101.973977,Americas,Mexico,Jalisco,Lagos de Moreno,Exact,18/09/2019,11/10/2019,Confirmed,Influenza - Avian,H7N3 HPAI,"domestic, unspecified bird",452,40,39,413,,,,,
259986,OIE,21.443266,-102.16186,Americas,Mexico,Jalisco,Encarnación de Díaz,Exact,18/09/2019,11/10/2019,Confirmed,Influenza - Avian,H7N3 HPAI,"domestic, unspecified bird",645,100,53,592,,,,,
259985,OIE,21.32843,-101.773891,Americas,Mexico,Jalisco,Lagos de Moreno,Exact,18/09/2019,11/10/2019,Confirmed,Influenza - Avian,H7N3 HPAI,"domestic, unspecified bird",1169,416,416,753,,,,,
259973,National authorities,36.816667,127.166667,Asia,Republic of Korea,Chungchongnam-do,Cheonan,Centroid Locality,10/10/2019,12/10/2019,Confirmed,Influenza - Avian,H5 LPAI,"environmental sample, unspecified bird",0,0,0,0,0,,0,,
259893,OIE,47.59846,1.77285,Europe,France,Centre,La Marolle-en-Sologne,Centroid Locality,03/10/2019,09/10/2019,Confirmed,Influenza - Avian,H5 LPAI,"domestic, duck",2600,,,,,,0,,
259716,OIE,22.7394444,120.5065555,Asia,Taiwan (Province of China),Taiwan Sheng,Jiuru Township,Exact,28/09/2019,05/10/2019,Confirmed,Influenza - Avian,H5N5 HPAI,"domestic, chicken",18699,775,775,17924,,,0,,
259203,OIE,23.729939,120.501697,Asia,Taiwan (Province of China),Taiwan Sheng,Huwei Township,Exact,18/09/2019,25/09/2019,Confirmed,Influenza - Avian,H5N2 HPAI,"domestic, unspecified bird",22126,1070,1070,21056,,,0,,
259202,OIE,23.870434,120.514235,Asia,Taiwan (Province of China),Taiwan Sheng,Beidou Township,Exact,17/09/2019,25/09/2019,Confirmed,Influenza - Avian,H5N2 HPAI,"domestic, unspecified bird",18,6,6,12,,,,,
259080,OIE,23.677665,120.265872,Asia,Taiwan (Province of China),Taiwan Sheng,Dongshi Township,Exact,13/09/2019,18/09/2019,Confirmed,Influenza - Avian,H5N2 HPAI,"domestic, chicken",12508,,,12508,,,0,,
259079,OIE,23.769576,120.582063,Asia,Taiwan (Province of China),Taiwan Sheng,Linnei Township,Exact,09/09/2019,18/09/2019,Confirmed,Influenza - Avian,H5N2 HPAI,"domestic, duck",14139,,,14139,,,0,,
259078,OIE,23.710021,120.251895,Asia,Taiwan (Province of China),Taiwan Sheng,Dongshi Township,Exact,09/09/2019,18/09/2019,Confirmed,Influenza - Avian,H5N2 HPAI,"domestic, duck",9325,,,9325,,,0,,
259077,OIE,23.74506389,120.23885833,Asia,Taiwan (Province of China),Taiwan Sheng,Taixi Township,Exact,05/09/2019,18/09/2019,Confirmed,Influenza - Avian,H5N2 HPAI,"domestic, duck",12901,,,12901,,,,,
258962,OIE,23.740297,120.23037,Asia,Taiwan (Province of China),Taiwan Sheng,Taixi Township,Exact,04/09/2019,16/09/2019,Confirmed,Influenza - Avian,H5N2 HPAI,"domestic, duck",4362,,,4362,,,,,
258961,OIE,22.605916,120.513277,Asia,Taiwan (Province of China),Taiwan Sheng,Wandan Township,Exact,04/09/2019,16/09/2019,Confirmed,Influenza - Avian,H5N2 HPAI,"domestic, duck",5119,,,5119,,,,,
258960,OIE,22.6677,120.5616,Asia,Taiwan (Province of China),Taiwan Sheng,Changzhi Township,Exact,02/09/2019,16/09/2019,Confirmed,Influenza - Avian,H5N2 HPAI,"domestic, chicken",660,14,14,646,,,,,
258959,OIE,23.81504,120.39092,Asia,Taiwan (Province of China),Taiwan Sheng,Erlun Township,Exact,31/08/2019,16/09/2019,Confirmed,Influenza - Avian,H5N2 HPAI,"domestic, chicken",32118,3209,3209,28909,,,,,
258958,OIE,25.03067,121.48937,Asia,Taiwan (Province of China),Taiwan Sheng,Wanhua District,Exact,28/08/2019,16/09/2019,Confirmed,Influenza - Avian,H5N2 HPAI,"domestic, chicken",41,1,,41,,,,,
258957,OIE,23.94201,120.34851,Asia,Taiwan (Province of China),Taiwan Sheng,Fangyuan Township,Exact,23/08/2019,16/09/2019,Confirmed,Influenza - Avian,H5N2 HPAI,"domestic, duck",444,,,444,,,,,
258956,OIE,-32.744967,-71.180021,Americas,Chile,Valparaiso,Santa Ana,Exact,10/09/2019,13/09/2019,Confirmed,Influenza - Avian,H7N6 LPAI,"domestic, turkey",39350,3461,,,39350,,,,
258947,OIE,22.942797,120.512893,Asia,Taiwan (Province of China),Taiwan Sheng,Qishan District,Exact,09/09/2019,23/09/2019,Confirmed,Influenza - Avian,H5N5 HPAI,"domestic, duck",3583,,,3583,,,0,,
258705,OIE,-33.0458456,-71.6196749,Americas,Chile,Valparaiso,El Peumo,Exact,27/08/2019,04/09/2019,Confirmed,Influenza - Avian,H7 LPAI,"domestic, turkey",67500,13000,,67500,,,,,
258704,OIE,10.0711,106.2951,Asia,Viet Nam,Ben Tre,Thanh Thoi B,Exact,18/08/2019,08/09/2019,Confirmed,Influenza - Avian,H5N6 HPAI,"domestic, unspecified bird",1026,138,138,888,,,,,
258702,OIE,23.59023,120.40844,Asia,Taiwan (Province of China),Taiwan Sheng,Xikou Township,Exact,28/08/2019,06/09/2019,Confirmed,Influenza - Avian,H5N2 HPAI,"domestic, quail",48684,2500,2500,46184,,,,,
258633,OIE,26.55805556,87.51611111,Asia,Nepal,Eastern,Kanepokhari-3,Exact,19/08/2019,02/09/2019,Confirmed,Influenza - Avian,H5N1 HPAI,"domestic, unspecified bird",417,195,195,222,,,,,
258427,OIE,23.850747,120.305667,Asia,Taiwan (Province of China),Taiwan Sheng,Dacheng Township,Exact,10/08/2019,21/08/2019,Confirmed,Influenza - Avian,H5N2 HPAI,"domestic, chicken",18912,882,882,18030,,,,,
258426,OIE,23.74108,120.23136,Asia,Taiwan (Province of China),Taiwan Sheng,Taixi Township,Exact,05/08/2019,21/08/2019,Confirmed,Influenza - Avian,H5N2 HPAI,"domestic, goose",266,,,266,,,,,
258425,OIE,25.03067,121.48937,Asia,Taiwan (Province of China),Taiwan Sheng,Wanhua District,Exact,04/08/2019,21/08/2019,Confirmed,Influenza - Avian,H5N2 HPAI,"domestic, chicken",3,1,,3,,,,,
258263,OIE,39.916667,116.383333,Asia,China,Beijing Shi,Beijing,Centroid Locality,11/08/2019,19/08/2019,Confirmed,Influenza - Avian,H5N6 HPAI,,,,,,,,,1,
258235,OIE,-34.0,21.4,Africa,South Africa,Western Cape,HPAI_H5N8_2017_207,Exact,11/06/2019,16/08/2019,Confirmed,Influenza - Avian,H5N8 HPAI,"domestic, ostrich",1422,8,,,,,,,
258234,OIE,-32.1,21.6,Africa,South Africa,Northern Cape,HPAI_H5N8_2017_208,Exact,01/07/2019,16/08/2019,Confirmed,Influenza - Avian,H5N8 HPAI,"wild,egyptian goose (alopochen aegyptiacus))",,6,,,,,,,
258233,OIE,23.731083,120.237466,Asia,Taiwan (Province of China),Taiwan Sheng,Taixi Township,Exact,29/07/2019,12/08/2019,Confirmed,Influenza - Avian,H5N2 HPAI,"domestic, chicken",6664,275,275,6389,,,,,
258232,OIE,25.03067,121.48937,Asia,Taiwan (Province of China),Taiwan Sheng,Wanhua District,Exact,25/07/2019,12/08/2019,Confirmed,Influenza - Avian,H5N2 HPAI,"domestic, chicken",44,3,,44,,,,,
258187,OIE,10.4934,107.4088,Asia,Viet Nam,Ba Ria-Vung Tau,Ho Tram,Exact,05/08/2019,08/08/2019,Confirmed,Influenza - Avian,H5N6 HPAI,"domestic, unspecified bird",4700,4700,,4700,,,,,
258101,OIE,23.869261,120.28921,Asia,Taiwan (Province of China),Taiwan Sheng,Dacheng Township,Exact,22/07/2019,06/08/2019,Confirmed,Influenza - Avian,H5N2 HPAI,"domestic, chicken",9675,1919,1919,7756,0,,,,
258100,OIE,23.76601,120.24216,Asia,Taiwan (Province of China),Taiwan Sheng,Mailiao Township,Exact,20/07/2019,06/08/2019,Confirmed,Influenza - Avian,H5N2 HPAI,"domestic, chicken",4832,2192,2192,2640,0,,,,
258099,OIE,23.689834,120.261344,Asia,Taiwan (Province of China),Taiwan Sheng,Dongshi Township,Exact,18/07/2019,06/08/2019,Confirmed,Influenza - Avian,H5N2 HPAI,"domestic, chicken",13227,847,847,12380,0,,,,
258098,OIE,23.710572,120.249017,Asia,Taiwan (Province of China),Taiwan Sheng,Dongshi Township,Exact,18/07/2019,06/08/2019,Confirmed,Influenza - Avian,H5N2 HPAI,"domestic, chicken",23230,517,517,22713,0,,,,
257975,OIE,20.513053,-99.79096,Americas,Mexico,Hidalgo,Pedro Escobedo,Exact,11/07/2019,26/07/2019,Confirmed,Influenza - Avian,H7N3 HPAI,"domestic, unspecified bird",21644,10000,4275,17369,0,,,,
257974,OIE,20.911669,-100.912744,Americas,Mexico,Guanajuato,Dolores Hidalgo,Exact,10/07/2019,26/07/2019,Confirmed,Influenza - Avian,H7N3 HPAI,"domestic, unspecified bird",20,5,4,16,0,,,,
257973,OIE,20.74421,-100.03835,Americas,Mexico,Queretaro,Colón,Exact,03/07/2019,26/07/2019,Confirmed,Influenza - Avian,H7N3 HPAI,"domestic, unspecified bird",174163,10,0,0,0,,,,
257972,OIE,19.660806,-96.926416,Americas,Mexico,Veracruz,Coacoatzintla,Exact,29/06/2019,26/07/2019,Confirmed,Influenza - Avian,H7N3 HPAI,"domestic, unspecified bird",25,13,3,22,0,,,,
257971,OIE,23.639212,120.302376,Asia,Taiwan (Province of China),Taiwan Sheng,Yuanchang Township,Exact,15/07/2019,29/07/2019,Confirmed,Influenza - Avian,H5N2 HPAI,"domestic, chicken",22809,290,290,22519,0,,,,
257970,OIE,23.98599,120.37583,Asia,Taiwan (Province of China),Taiwan Sheng,Fangyuan Township,Exact,12/07/2019,29/07/2019,Confirmed,Influenza - Avian,H5N2 HPAI,"domestic, duck",1531,0,0,1531,0,,,,
257539,OIE,20.513053,-99.79096,Americas,Mexico,Hidalgo,Pedro escobedo,Exact,11/07/2019,29/07/2019,Confirmed,Influenza - Avian,H7N3 HPAI,"domestic, unspecified bird",21644,10000,4275,17369,,,,,
257538,OIE,20.911669,-100.912744,Americas,Mexico,Guanajuato,Dolores Hidalgo,Exact,10/07/2019,29/07/2019,Confirmed,Influenza - Avian,H7N3 HPAI,"domestic, unspecified bird",20,5,4,16,,,,,
257537,OIE,20.74421,-100.03835,Americas,Mexico,Queretaro,Colon,Exact,03/07/2019,29/07/2019,Confirmed,Influenza - Avian,H7N3 HPAI,"domestic, unspecified bird",174163,10,0,0,,,,,
257536,OIE,19.660805,-96.926416,Americas,Mexico,Veracruz,Coacoatzintla,Exact,29/06/2019,29/07/2019,Confirmed,Influenza - Avian,H7N3 HPAI,"domestic, unspecified bird",25,13,3,22,,,,,
255727,OIE,25.03067,121.48937,Asia,Taiwan (Province of China),Taiwan Sheng,Wanhua District,Unknown,02/07/2019,17/07/2019,Confirmed,Influenza - Avian,H5N2 HPAI,"domestic, chicken",14,2,0,14,0,,,,
255395,OIE,23.652518,120.255147,Asia,Taiwan (Province of China),Taiwan Sheng,Sihu Township,Unknown,04/07/2019,09/07/2019,Confirmed,Influenza - Avian,H5N2 HPAI,"domestic, turkey",1467,346,346,1121,0,,,,
255394,OIE,23.836218,120.316942,Asia,Taiwan (Province of China),Taiwan Sheng,Dacheng Township,Unknown,01/07/2019,09/07/2019,Confirmed,Influenza - Avian,H5N2 HPAI,"domestic, chicken",15295,106,106,15189,0,,,,
255393,OIE,23.676338,120.240531,Asia,Taiwan (Province of China),Taiwan Sheng,Dongshi Township,Unknown,21/06/2019,09/07/2019,Confirmed,Influenza - Avian,H5N2 HPAI,"domestic, duck",3908,0,0,3908,0,,,,
255392,OIE,23.674181,120.236253,Asia,Taiwan (Province of China),Taiwan Sheng,Dongshi Township,Unknown,21/06/2019,09/07/2019,Confirmed,Influenza - Avian,H5N2 HPAI,"domestic, duck",2612,0,0,2612,0,,,,
255264,OIE,-32.1,21.6,Africa,South Africa,Northern Cape," HPAI_H5N8_2017_206, Karoo Hoogland, Northern Cape Province ",Exact,21/06/2019,10/07/2019,Confirmed,Influenza - Avian,H5N8 HPAI,"domestic, ostrich",1440,22,0,0,0,,0,,
255241,OIE,20.6987,-101.0526,Americas,Mexico,Guanajuato,Santa Cruz de Juventino Rosas,Unknown,19/06/2019,08/07/2019,Confirmed,Influenza - Avian,H7N3 HPAI,"domestic, unspecified bird",50,30,25,25,0,,,,
255240,OIE,20.450833,-103.250555,Americas,Mexico,Jalisco,Tlajomulco de Zuñiga,Unknown,11/06/2019,08/07/2019,Confirmed,Influenza - Avian,H7N3 HPAI,"domestic, unspecified bird",210,10,10,200,0,,,,
255239,OIE,20.48208,-99.28236,Americas,Mexico,Hidalgo,Tasquillo,Unknown,06/06/2019,08/07/2019,Confirmed,Influenza - Avian,H7N3 HPAI,"domestic, unspecified bird",1000,1000,1000,0,0,,,,
255196,OIE,23.60936,120.33595,Asia,Taiwan (Province of China),Taiwan Sheng,Yuanchang Township,Unknown,08/12/2017,08/07/2019,Confirmed,Influenza - Avian,H5N2 LPAI,"domestic, chicken",9564,,64,0,9500,,,,
255195,OIE,22.422958,120.575633,Asia,Taiwan (Province of China),Taiwan Sheng,Fangliao Township,Unknown,13/04/2017,08/07/2019,Confirmed,Influenza - Avian,H5N2 LPAI,"domestic, chicken",35000,0,0,0,35000,,,,
255104,OIE,23.785295,120.50508,Asia,Taiwan (Province of China),Taiwan Sheng,Citong Township,Unknown,28/06/2019,03/07/2019,Confirmed,Influenza - Avian,H5N2 HPAI,"domestic, chicken",18988,240,240,18748,0,,,,
255103,OIE,23.85076,120.306669,Asia,Taiwan (Province of China),Taiwan Sheng,Dacheng Township,Unknown,26/06/2019,03/07/2019,Confirmed,Influenza - Avian,H5N2 HPAI,"domestic, chicken",18723,1037,1037,17686,0,,,,
255102,OIE,23.645431,120.343836,Asia,Taiwan (Province of China),Taiwan Sheng,Yuanchang Township,Unknown,24/06/2019,03/07/2019,Confirmed,Influenza - Avian,H5N2 HPAI,"domestic, goose",805,29,29,776,0,,,,
255101,OIE,23.848536,120.298408,Asia,Taiwan (Province of China),Taiwan Sheng,Dacheng Township,Unknown,24/06/2019,03/07/2019,Confirmed,Influenza - Avian,H5N2 HPAI,"domestic, chicken",28160,1200,1200,26960,0,,,,
255100,OIE,23.742488,120.237438,Asia,Taiwan (Province of China),Taiwan Sheng,Taixi Township,Unknown,24/06/2019,03/07/2019,Confirmed,Influenza - Avian,H5N2 HPAI,"domestic, chicken",5897,123,123,5774,0,,,,
254953,OIE,20.6032,106.5665,Asia,Viet Nam,Thai Binh,Thuy Hong ,Exact,23/06/2019,03/07/2019,Confirmed,Influenza - Avian,H5N6 HPAI,"domestic, unspecified bird",1000,1000,35,965,,,,,
254907,OIE,55.31,11.5799,Europe,Denmark,Vestsjaelland,Fuglebjerg,Unknown,25/06/2019,28/06/2019,Confirmed,Influenza - Avian,H5 LPAI,"domestic, unspecified bird",3000,0,0,0,0,,,,
254693,OIE,27.98174,85.25881,Asia,Nepal,Central,Naukunda Rural Municipality-5,Unknown,18/06/2019,26/06/2019,Confirmed,Influenza - Avian,H5N1 HPAI,"domestic, unspecified bird",900,219,219,681,0,,0,,
254657,OIE,27.669813,85.410775,Asia,Nepal,Central,Suryabinayak municipality-5,Unknown,11/06/2019,25/06/2019,Confirmed,Influenza - Avian,H5N1 HPAI,"domestic, chicken",5496,1535,1535,3961,0,,0,,
254656,OIE,23.990492,120.378555,Asia,Taiwan (Province of China),Taiwan Sheng,Fangyuan Township,Unknown,18/06/2019,25/06/2019,Confirmed,Influenza - Avian,H5N2 HPAI,"domestic, chicken",29030,1070,1070,27960,0,,,,
254590,OIE,-25.72004,14.83295,Africa,Namibia,Karas,Mercury Island,Exact,20/06/2019,20/06/2019,Confirmed,Influenza - Avian,H5N8 HPAI,"wild, jackass penguin spheniscus demersus",,19,19,0,0,,0,,
254589,OIE,-26.288038,14.956528,Africa,Namibia,Karas,Ichaboe Island,Centroid Locality,20/02/2019,20/06/2019,Confirmed,Influenza - Avian,H5N8 HPAI,"wild, jackass penguin spheniscus demersus",,45,45,0,0,,0,,
254578,OIE,-26.65,15.08,Africa,Namibia,Karas,Halifax Island,Unknown,20/02/2019,20/06/2019,Confirmed,Influenza - Avian,H5N8 HPAI,"wild, jackass penguin spheniscus demersus",,174,174,0,0,,,,
254548,OIE,23.668553,120.240054,Asia,Taiwan (Province of China),Taiwan Sheng,Dongshi Township,Unknown,08/06/2019,18/06/2019,Confirmed,Influenza - Avian,H5N2 HPAI,"domestic, chicken",12476,591,591,11885,0,,,,
254547,OIE,25.03067,121.48937,Asia,Taiwan (Province of China),Taiwan Sheng,Wanhua District,Unknown,31/05/2019,18/06/2019,Confirmed,Influenza - Avian,H5N2 HPAI,"domestic, chicken",26,2,0,26,0,,,,
254546,OIE,23.637128,120.195954,Asia,Taiwan (Province of China),Taiwan Sheng,Sihu Township,Unknown,27/05/2019,18/06/2019,Confirmed,Influenza - Avian,H5N2 HPAI,"domestic, goose",3,3,3,0,0,,,,
254513,National authorities,49.963279,5.438261,Europe,Belgium,Region wallonne,Luxembourg,Centroid Admin2,31/01/2019,14/06/2019,Confirmed,Influenza - Avian,H3 LPAI,"domestic, chicken",,,,,,,0,,
254512,National authorities,50.475605,5.77263,Europe,Belgium,Region wallonne,Liege,Centroid Admin2,31/01/2019,14/06/2019,Confirmed,Influenza - Avian,H3 LPAI,"domestic, chicken",,,,,,,0,,
254511,National authorities,51.247127,4.689417,Europe,Belgium,Vlaams Gewest,Antwerpen,Centroid Admin2,31/01/2019,14/06/2019,Confirmed,Influenza - Avian,H3 LPAI,"domestic, chicken",,,,,,,0,,
254510,National authorities,51.013206,3.834678,Europe,Belgium,Vlaams Gewest,Oost-Vlaanderen,Centroid Admin2,31/01/2019,14/06/2019,Confirmed,Influenza - Avian,H3 LPAI,"domestic, chicken",,,,,,,0,,
254509,National authorities,51.041955,3.006225,Europe,Belgium,Vlaams Gewest,West-Vlaanderen,Centroid Admin2,31/01/2019,14/06/2019,Confirmed,Influenza - Avian,H3 LPAI,"domestic, chicken",,,,,,,,,
254508,National authorities,51.041955,3.006225,Europe,Belgium,Vlaams Gewest,West-Vlaanderen,Centroid Admin2,31/01/2019,06/04/2019,Confirmed,Influenza - Avian,H3N1 LPAI,"domestic, chicken",,,,,,,,,
254456,National authorities,50.383333,3.316667,Europe,France,Nord-Pas-de-Calais,Nord department,Centroid Locality,22/05/2019,14/06/2019,Confirmed,Influenza - Avian,H3N1 LPAI,"domestic, chicken",,,,,,,,,
254083,OIE,20.425778,-100.06,Americas,Mexico,Queretaro,San Juan del Río,Exact,20/05/2019,04/06/2019,Confirmed,Influenza - Avian,H7N3 HPAI,"domestic, unspecified bird",133566,5,0,133566,0,,,,
254082,OIE,19.8281,-98.9606,Americas,Mexico,Hidalgo,Tizayuca,Exact,14/05/2019,04/06/2019,Confirmed,Influenza - Avian,H7N3 HPAI,"domestic, unspecified bird",1300,1200,1150,150,0,,,,
254081,OIE,20.68267,-99.81036,Americas,Mexico,Queretaro,Cadereyta de Montes,Exact,14/05/2019,04/06/2019,Confirmed,Influenza - Avian,H7N3 HPAI,"domestic, unspecified bird",25,5,0,25,0,,,,
254080,OIE,17.924,-99.898,Americas,Mexico,Guerrero,General Heliodoro Castillo,Exact,08/05/2019,04/06/2019,Confirmed,Influenza - Avian,H7N3 HPAI,"domestic, unspecified bird",54,14,10,0,0,,,,
253832,OIE,-32.8,23.9,Africa,South Africa,Eastern Cape,HPAI_H5N8_2017_205,Exact,15/04/2019,04/06/2019,Confirmed,Influenza - Avian,H5N8 HPAI,"domestic, ostrich",709,22,,,,,,,
253812,National authorities,44.24747,80.6674,Asia,China,Xinjiang Uygur Zizhiqu,Liushuqu Village,Exact,24/05/2019,01/06/2019,Confirmed,Influenza - Avian,H5N6 HPAI,"domestic, unspecified bird",11910,1503,1015,10895,,,0,,
253791,OIE,23.60533,120.19777,Asia,Taiwan (Province of China),Taiwan Sheng,Kouhu Township,Exact,24/05/2019,29/05/2019,Confirmed,Influenza - Avian,H5N2 HPAI,"domestic, chicken",14642,639,639,14003,0,,,,
253790,OIE,23.716737,120.237712,Asia,Taiwan (Province of China),Taiwan Sheng,Dongshi Township,Exact,20/05/2019,29/05/2019,Confirmed,Influenza - Avian,H5N2 HPAI,"domestic, chicken",18397,745,745,17652,0,,,,
253789,OIE,23.740892,120.240172,Asia,Taiwan (Province of China),Taiwan Sheng,Dongshi Township,Exact,16/05/2019,29/05/2019,Confirmed,Influenza - Avian,H5N2 HPAI,"domestic, duck",1653,0,0,1653,0,,,,
253757,OIE,6.6212,5.8581,Africa,Nigeria,Edo,Oba Area,Exact,21/04/2019,28/05/2019,Confirmed,Influenza - Avian,H5N8 HPAI,"domestic, unspecified bird",,20,,,,,,,
253619,OIE,23.849417,120.372667,Asia,Taiwan (Province of China),Taiwan Sheng,Zhutang Township,Exact,17/05/2019,24/05/2019,Confirmed,Influenza - Avian,H5N2 HPAI,"domestic, chicken",3944,2136,2136,1808,0,,,,
253618,OIE,22.436139,120.556583,Asia,Taiwan (Province of China),Taiwan Sheng,Jiadong Township,Exact,14/05/2019,24/05/2019,Confirmed,Influenza - Avian,H5N2 HPAI,"domestic, duck",4193,40,40,4153,0,,,,
253426,OIE,9.8088,105.8023,Asia,Viet Nam,Hau Giang,Lai Hieu,Exact,04/05/2019,20/05/2019,Confirmed,Influenza - Avian,,"domestic, unspecified bird",1120,0,0,1120,0,,,,
253412,OIE,20.5267,-100.08585,Americas,Mexico,Queretaro,Pedro Escobedo,Exact,07/05/2019,17/05/2019,Confirmed,Influenza - Avian,H7N3 HPAI,"domestic, unspecified bird",2000,1400,1200,0,0,,,,
253411,OIE,19.555278,-98.024444,Americas,Mexico,Tlaxcala,Tlaxco,Exact,30/04/2019,17/05/2019,Confirmed,Influenza - Avian,H7N3 HPAI,"domestic, unspecified bird",10,5,5,5,0,,,,
253410,OIE,17.928,-99.9,Americas,Mexico,Guerrero,General Heliodoro Castillo,Exact,30/04/2019,17/05/2019,Confirmed,Influenza - Avian,H7N3 HPAI,"domestic, unspecified bird",34,24,19,15,0,,,,
253409,OIE,20.65652,-99.96347,Americas,Mexico,Queretaro,Ezequiel Montes,Exact,29/04/2019,17/05/2019,Confirmed,Influenza - Avian,H7N3 HPAI,"domestic, unspecified bird",62,50,42,20,0,,,,
253408,OIE,20.066601,-100.07374,Americas,Mexico,Queretaro,Colón,Exact,24/04/2019,17/05/2019,Confirmed,Influenza - Avian,H7N3 HPAI,"domestic, unspecified bird",1,1,0,1,0,,,,
253261,OIE,9.8088,105.8023,Asia,Viet Nam,Hau Giang,Lai Hieu,Exact,04/05/2019,20/05/2019,Confirmed,Influenza - Avian,H5N1 HPAI,"domestic, unspecified bird",1120,,,1120,,,,,
253104,OIE,23.769176,120.273879,Asia,Taiwan (Province of China),Taiwan Sheng,Mailiao Township,Exact,04/05/2019,14/05/2019,Confirmed,Influenza - Avian,H5N2 HPAI,"domestic, chicken",14336,816,816,13520,0,,,,
253103,OIE,22.894632,120.22422,Asia,Taiwan (Province of China),Taiwan Sheng,Hunei District,Exact,30/04/2019,14/05/2019,Confirmed,Influenza - Avian,H5N2 HPAI,"domestic, chicken",5675,519,210,5465,0,,,,
253085,OIE,23.7375,120.225828,Asia,Taiwan (Province of China),Taiwan Sheng,Taixi Township,Exact,17/05/2018,13/05/2019,Confirmed,Influenza - Avian,H5N2 LPAI,"domestic, chicken",25500,0,0,0,25500,,,,
253084,OIE,24.099611,120.456918,Asia,Taiwan (Province of China),Taiwan Sheng,Lukang Township,Exact,28/03/2018,13/05/2019,Confirmed,Influenza - Avian,H5N2 LPAI,"domestic, chicken",6500,0,0,0,6500,,,,
253083,OIE,23.605037,120.482432,Asia,Taiwan (Province of China),Taiwan Sheng,Dalin Township,Exact,12/02/2018,13/05/2019,Confirmed,Influenza - Avian,H5N2 LPAI,"domestic, chicken",3,3,3,0,0,,,,
253082,OIE,22.666792,120.534989,Asia,Taiwan (Province of China),Taiwan Sheng,Linluo Township,Exact,15/01/2018,13/05/2019,Confirmed,Influenza - Avian,H5N2 LPAI,"domestic, chicken",19400,320,320,0,0,,,,
253081,OIE,22.729389,120.494278,Asia,Taiwan (Province of China),Taiwan Sheng,Jiuru Township,Exact,05/07/2017,13/05/2019,Confirmed,Influenza - Avian,H5N2 LPAI,"domestic, chicken",8000,0,0,0,8000,,,,
253080,OIE,23.739512,120.239687,Asia,Taiwan (Province of China),Taiwan Sheng,Dongshi Township,Exact,14/03/2017,13/05/2019,Confirmed,Influenza - Avian,H5N2 LPAI,"domestic, chicken",20000,0,0,0,20000,,,,
253079,OIE,24.806888,121.76727,Asia,Taiwan (Province of China),Taiwan Sheng,Jiaoxi Township,Exact,10/01/2019,13/05/2019,Confirmed,Influenza - Avian,H7N7 LPAI,"domestic, duck",1300,0,0,0,0,,,,
252684,OIE,27.559229,84.04133,Asia,Nepal,Western,Madhyabidu municipality-2,Exact,02/05/2019,05/05/2019,Confirmed,Influenza - Avian,H5N1 HPAI,"domestic, unspecified bird",271,25,25,246,0,,,,
252403,OIE,23.863379,120.350614,Asia,Taiwan (Province of China),Taiwan Sheng,Erlin Township,Exact,19/04/2019,30/04/2019,Confirmed,Influenza - Avian,H5N2 HPAI,"domestic, chicken",31153,4050,4050,27103,0,,,,
252402,OIE,23.732428,120.258915,Asia,Taiwan (Province of China),Taiwan Sheng,Dongshi Township,Exact,17/04/2019,30/04/2019,Confirmed,Influenza - Avian,H5N2 HPAI,"domestic, goose",1139,0,0,1139,0,,,,
252247,National authorities,27.857184,85.407489,Asia,Nepal,Central,Bagmati,Centroid Admin2,24/03/2019,02/05/2019,Confirmed,Influenza - Avian,H5N1 HPAI,,,,,,,Male,21,1,1
252226,OIE,20.21594,-98.76137,Americas,Mexico,Hidalgo,Mineral del Chico,Exact,15/04/2019,26/04/2019,Confirmed,Influenza - Avian,H7N3 HPAI,"domestic, unspecified bird",598,178,172,0,0,,,,
252225,OIE,20.676714,-99.987875,Americas,Mexico,Queretaro,Colon,Exact,08/04/2019,26/04/2019,Confirmed,Influenza - Avian,H7N3 HPAI,"domestic, unspecified bird",138632,5,0,0,138632,,,,
252106,OIE,27.74111111,85.41666667,Asia,Nepal,Central,Kageshwori,Exact,23/04/2019,29/04/2019,Confirmed,Influenza - Avian,H5N1 HPAI,"domestic, duck",500,190,190,310,,,0,,
252039,OIE,32.478083,35.418018,Asia,Israel,Northern,MA''ALE GILBOA,Exact,20/04/2019,25/04/2019,Confirmed,Influenza - Avian,H5N8 HPAI,"domestic, turkey",13500,350,200,13300,0,,,,
252038,OIE,23.692255,120.258276,Asia,Taiwan (Province of China),Taiwan Sheng,Dongshi Township,Exact,12/04/2019,26/04/2019,Confirmed,Influenza - Avian,H5N2 HPAI,"domestic, chicken",22879,79,79,22800,0,,,,
252037,OIE,23.8743,120.4437,Asia,Taiwan (Province of China),Taiwan Sheng,Pitou Township,Exact,08/04/2019,26/04/2019,Confirmed,Influenza - Avian,H5N2 HPAI,"domestic, chicken",720,43,43,677,0,,,,
251947,OIE,36.378,-121.656,Americas,United States of America,California,Monterey County,Exact,15/04/2019,24/04/2019,Confirmed,Influenza - Avian,H5 LPAI,"domestic, duck",9476,0,0,0,0,,,,
251909,OIE,19.40207,-70.56506,Americas,Dominican Republic,Espaillat,Espaillat,Exact,22/01/2019,22/04/2019,Confirmed,Influenza - Avian,H5N2 LPAI,"domestic, unspecified bird",19,12,7,0,0,,,,
251908,OIE,19.42478,-70.49296,Americas,Dominican Republic,Espaillat,Espaillat,Exact,21/01/2019,22/04/2019,Confirmed,Influenza - Avian,H5N2 LPAI,"domestic, unspecified bird",59097,0,0,0,0,,,,
251907,OIE,19.360898,-70.5173,Americas,Dominican Republic,Espaillat,Espaillat,Exact,14/01/2019,22/04/2019,Confirmed,Influenza - Avian,H5N2 LPAI,"domestic, chicken",13000,0,0,0,0,,,,
251906,OIE,19.40182,-70.508422,Americas,Dominican Republic,Espaillat,Espaillat,Exact,10/01/2019,22/04/2019,Confirmed,Influenza - Avian,H5N2 LPAI,"domestic, chicken",45000,535,530,0,0,,,,
251905,OIE,19.37906,-70.54887,Americas,Dominican Republic,Espaillat,Espaillat,Exact,09/01/2019,22/04/2019,Confirmed,Influenza - Avian,H5N2 LPAI,"domestic, chicken",3000,0,0,0,0,,,,
251904,OIE,19.39742,-70.505116,Americas,Dominican Republic,Espaillat,Espaillat,Exact,08/01/2019,22/04/2019,Confirmed,Influenza - Avian,H5N2 LPAI,"domestic, unspecified bird",56685,2350,2350,0,0,,,,
251903,OIE,19.37903,-70.55098,Americas,Dominican Republic,Espaillat,Espaillat,Exact,30/12/2018,22/04/2019,Confirmed,Influenza - Avian,H5N2 LPAI,"domestic, chicken",1800,30,0,0,0,,,,
251626,OIE,10.98066,104.7799,Asia,Cambodia,Takeo,Daunkeo market,Exact,25/03/2019,18/04/2019,Confirmed,Influenza - Avian,H5N6 HPAI,"domestic, unspecified bird",100,10,,90,,,0,,
251549,OIE,23.028841,89.399236,Asia,Bangladesh,Khulna,Noapara,Exact,15/12/2018,17/04/2019,Confirmed,Influenza - Avian,H5 HPAI,"wild, crow",,31,31,,,,,,
251548,OIE,25.03067,121.48937,Asia,Taiwan (Province of China),Taiwan Sheng,Wanhua District,Exact,26/03/2019,16/04/2019,Confirmed,Influenza - Avian,H5N2 HPAI,"domestic, chicken",77,4,,77,,,,,
251544,OIE,19.878863,-99.554658,Americas,Mexico,Mexico,Chapa de Mota,Exact,09/04/2019,16/04/2019,Confirmed,Influenza - Avian,H7N3 HPAI,"domestic, unspecified bird",290,290,230,60,,,,,
251543,OIE,21.377253,-101.929069,Americas,Mexico,Jalisco,Lagos de Moreno,Exact,09/04/2019,16/04/2019,Confirmed,Influenza - Avian,H7N3 HPAI,"domestic, unspecified bird",612,612,120,429,,,,,
251542,OIE,21.375311,-101.935152,Americas,Mexico,Jalisco,Lagos de Moreno,Exact,09/04/2019,16/04/2019,Confirmed,Influenza - Avian,H7N3 HPAI,"domestic, chicken",1625,1625,400,1225,,,,,
251434,OIE,6.5898,5.8414,Africa,Nigeria,Edo,Benin City,Exact,05/04/2019,15/04/2019,Confirmed,Influenza - Avian,H5N8 HPAI,"domestic, chicken",1500,250,250,1250,,,0,,
251432,OIE,37.944969,46.012833,Asia,Iran  (Islamic Republic of),East Azarbayejan,badihe aghdam,Exact,08/04/2019,13/04/2019,Confirmed,Influenza - Avian,H5N8 HPAI,"domestic, unspecified bird",65000,65000,278,64722,,,,,
251431,OIE,35.20394,51.71101,Asia,Iran  (Islamic Republic of),Tehran,hesar beyg,Exact,08/04/2019,13/04/2019,Confirmed,Influenza - Avian,H5N8 HPAI,"domestic, unspecified bird",10000,10000,4000,6000,,,,,
251430,OIE,27.623224,85.359019,Asia,Nepal,Central,Godabari-1,Exact,12/04/2019,13/04/2019,Confirmed,Influenza - Avian,H5N1 HPAI,"domestic, chicken",1000,123,123,877,,,,,
251401,OIE,25.03067,121.48937,Asia,Taiwan (Province of China),Taiwan Sheng,Wanhua District,Exact,29/03/2019,08/04/2019,Confirmed,Influenza - Avian,H5N2 HPAI,"domestic, chicken",8,1,,8,,,,,
251400,OIE,23.735578,120.241605,Asia,Taiwan (Province of China),Taiwan Sheng,Dongshi Township,Exact,26/03/2019,08/04/2019,Confirmed,Influenza - Avian,H5N2 HPAI,"domestic, chicken",12585,241,241,12344,,,,,
251399,OIE,25.117318,121.474572,Asia,Taiwan (Province of China),Taiwan Sheng,Beitou District,Exact,25/03/2019,08/04/2019,Confirmed,Influenza - Avian,H5N2 HPAI,"domestic, chicken",3,3,3,,,,,,
251398,OIE,23.677665,120.265872,Asia,Taiwan (Province of China),Taiwan Sheng,Dongshi Township,Exact,22/03/2019,08/04/2019,Confirmed,Influenza - Avian,H5N2 HPAI,"domestic, chicken",18848,302,302,18546,,,,,
251397,OIE,23.683074,120.263209,Asia,Taiwan (Province of China),Taiwan Sheng,Dongshi Township,Exact,21/03/2019,08/04/2019,Confirmed,Influenza - Avian,H5N2 HPAI,"domestic, duck",4738,,,,,,,,
251396,OIE,23.683875,120.263218,Asia,Taiwan (Province of China),Taiwan Sheng,Dongshi Township,Exact,21/03/2019,08/04/2019,Confirmed,Influenza - Avian,H5N2 HPAI,"domestic, duck",6260,,,6260,,,,,
251395,OIE,25.03067,121.48937,Asia,Taiwan (Province of China),Taiwan Sheng,Wanhua District,Exact,16/03/2019,08/04/2019,Confirmed,Influenza - Avian,H5N2 HPAI,"domestic, chicken",21,1,,21,,,,,
251274,OIE,26.8382,89.1136,Asia,Bhutan,Samtse,Dhamdara ,Exact,06/04/2019,11/04/2019,Confirmed,Influenza - Avian,H5N1 HPAI,"domestic, unspecified bird",2000,264,264,1095,,,0,,
250626,National authorities,42.0494,24.9058,Europe,Bulgaria,Plovdiv,Asenovgrad ,Exact,08/04/2019,08/04/2019,Confirmed,Influenza - Avian,H5N8 HPAI,"domestic, chicken",168752,300,300,168452,,,0,,
250532,National authorities,42.0925,24.815,Europe,Bulgaria,Plovdiv,Krumovo,Exact,03/04/2019,05/04/2019,Confirmed,Influenza - Avian,H5N8 HPAI,"domestic, chicken",37,37,37,0,,,0,,
250531,National authorities,42.0494,24.9058,Europe,Bulgaria,Plovdiv,Asenovgrad ,Exact,03/04/2019,05/04/2019,Confirmed,Influenza - Avian,H5N8 HPAI,"domestic, chicken",34998,298,298,34700,,,0,,
250447,National authorities,40.101957,103.294553,Asia,China,Nei Mongol Zizhiqu,Alxa,Centroid Admin2,,05/04/2019,Confirmed,Influenza - Avian,H7N9 LPAI,,,,,,,Male,82,1,0
250293,OIE,20.443063,85.401419,Asia,India,Orissa,Govt. Duck Breeding Farm,Exact,23/03/2019,04/04/2019,Confirmed,Influenza - Avian,H5N1 HPAI,"domestic, duck",924,235,235,689,,,,,
250235,OIE,27.643333,85.401388,Asia,Nepal,Central,Suryabinayak municipality-1,Exact,29/03/2019,04/04/2019,Confirmed,Influenza - Avian,H5N1 HPAI,"domestic, chicken",3200,215,215,2985,,,,,
250205,OIE,19.650621,-98.880518,Americas,Mexico,Mexico,Acolman,Exact,06/03/2019,01/04/2019,Confirmed,Influenza - Avian,H7N3 HPAI,"domestic, chicken",150,150,150,,,,,,
250202,OIE,43.0747,24.0764,Europe,Bulgaria,Lovech,Lovech,Exact,02/04/2019,03/04/2019,Confirmed,Influenza - Avian,H5 HPAI,"domestic, unspecified bird",1400,20,0,1400,,,0,,
250141,"National Institute for Communicable Diseases, NICD",32.593353,120.046884,Asia,China,Jiangsu Sheng,Taizhou,Centroid Admin2,15/03/2019,04/04/2019,Confirmed,Influenza - Avian,H9N2 LPAI,,,,,,,Male,9,1,
250118,National authorities,42.13527,122.79055,Asia,China,Liaoning Sheng,Xinmin City,Exact,,31/03/2019,Confirmed,Influenza - Avian,H5N1 HPAI,"domestic, unspecified bird",25472,1000,1000,24472,,,0,,
250058,OIE,25.117318,121.474572,Asia,Taiwan (Province of China),Taiwan Sheng,Beitou District,Exact,22/03/2019,29/03/2019,Confirmed,Influenza - Avian,H5N2 HPAI,"domestic, chicken",3,3,3,,,,,,
250057,OIE,25.117318,121.474572,Asia,Taiwan (Province of China),Taiwan Sheng,Beitou District,Exact,20/03/2019,29/03/2019,Confirmed,Influenza - Avian,H5N2 HPAI,"domestic, chicken",5,5,5,,,,,,
250056,OIE,25.03067,121.48937,Asia,Taiwan (Province of China),Taiwan Sheng,Wanhua District,Exact,20/03/2019,29/03/2019,Confirmed,Influenza - Avian,H5N2 HPAI,"domestic, chicken",61,,,61,,,,,
250055,OIE,25.117318,121.474572,Asia,Taiwan (Province of China),Taiwan Sheng,Beitou District,Exact,16/03/2019,29/03/2019,Confirmed,Influenza - Avian,H5N2 HPAI,"domestic, chicken",39,39,39,,,,,,
250054,OIE,25.117318,121.474572,Asia,Taiwan (Province of China),Taiwan Sheng,Beitou District,Exact,20/03/2019,01/04/2019,Confirmed,Influenza - Avian,H5N2 HPAI,"wild, grey heron",,1,1,,,,,,
250046,OIE,26.70138889,87.22805556,Asia,Nepal,Eastern,Itahari-11,Exact,21/03/2019,01/04/2019,Confirmed,Influenza - Avian,H5N1 HPAI,"domestic, chicken",2947,2100,2100,847,,,0,,
250045,OIE,26.65018889,87.35805556,Asia,Nepal,Eastern,Sunder Haraicha,Exact,18/03/2019,01/04/2019,Confirmed,Influenza - Avian,H5N1 HPAI,"domestic, chicken",3031,1092,1092,1939,,,0,,
249548,OIE,27.718573,85.317751,Asia,Nepal,Central,Lainchaur,Exact,17/03/2019,26/03/2019,Confirmed,Influenza - Avian,H5N1 HPAI,"wild, crow",,200,200,,,,,,
249498,National authorities,41.14476,121.13994,Asia,China,Liaoning Sheng,Jinzhou City zoo,Centroid Admin2,17/03/2019,25/03/2019,Confirmed,Influenza - Avian,H7N9 HPAI,"domestic,indian peafowl (pavo cristatus))",394,9,9,191,,,0,,
249488,OIE,28.2553,84.10056,Asia,Nepal,Western,Madi ward-3,Exact,07/03/2019,24/03/2019,Confirmed,Influenza - Avian,H5N1 HPAI,"domestic, chicken",100,23,23,77,,,,,
249487,OIE,27.771416,85.318687,Asia,Nepal,Central,Tarkeshwor,Exact,07/03/2019,24/03/2019,Confirmed,Influenza - Avian,H5N1 HPAI,"domestic, chicken",30673,2125,2125,28548,,,,,
249486,OIE,27.762222,85.321944,Asia,Nepal,Central,Tokha,Exact,07/03/2019,24/03/2019,Confirmed,Influenza - Avian,H5N1 HPAI,"domestic, chicken",2220,370,370,1850,,,,,
249485,OIE,30.51158,47.53062,Asia,Iraq,Basrah,Basrah market,Exact,17/03/2019,24/03/2019,Confirmed,Influenza - Avian,H5N8 HPAI,"domestic, unspecified bird",5000,5000,2000,3000,,,,,
249357,National authorities,11.48682,105.32533,Asia,Cambodia,Prey Veng,Prey Veng,Centroid Locality,27/11/2018,15/02/2019,Confirmed,Influenza - Avian,H7N7 LPAI,"environmental sample, unspecified bird",,,,,,,,,
249356,National authorities,11.48682,105.32533,Asia,Cambodia,Prey Veng,Prey Veng,Centroid Locality,21/11/2018,15/02/2019,Confirmed,Influenza - Avian,H7N9 LPAI,"environmental sample, unspecified bird",,,,,,,,,
249355,National authorities,10.983333,104.783333,Asia,Cambodia,Takeo,Takeo,Centroid Locality,22/03/2018,15/02/2019,Confirmed,Influenza - Avian,H7N4 LPAI,"environmental sample, unspecified bird",,3,,,,,,,
249354,National authorities,10.983333,104.783333,Asia,Cambodia,Takeo,Takeo,Centroid Locality,22/03/2018,15/02/2019,Confirmed,Influenza - Avian,H7N7 LPAI,"environmental sample, unspecified bird",,1,,,,,,,
249353,National authorities,11.569583,104.921028,Asia,Cambodia,Phnom Penh,Phnom Penh ,Centroid Locality,20/11/2018,15/02/2019,Confirmed,Influenza - Avian,H7N3 LPAI,"environmental sample, unspecified bird",,1,,,,,,,
249352,National authorities,11.14787,105.54372,Asia,Cambodia,Prey Veng,Kampong Trobek,Exact,24/02/2018,15/02/2019,Confirmed,Influenza - Avian,H7N4 LPAI,"domestic, duck",100,10,0,10,90,,0,,
249290,OIE,23.97414,120.39647,Asia,Taiwan (Province of China),Taiwan Sheng,Fangyuan Township,Exact,12/03/2019,18/03/2019,Confirmed,Influenza - Avian,H5N2 HPAI,"domestic, chicken",17869,1305,1305,16564,,,,,
249048,OIE,55.5119,9.9781,Europe,Denmark,Fyn,Brenderup,Exact,12/03/2019,15/03/2019,Confirmed,Influenza - Avian,H7 LPAI,"domestic, duck",3300,,,3300,,,,,
249046,OIE,27.769718,85.317463,Asia,Nepal,Central,Tarkeshwor-1,Exact,28/02/2019,17/03/2019,Confirmed,Influenza - Avian,H5N1 HPAI,"domestic, unspecified bird",5852,2600,2600,3252,,,,,
249045,OIE,27.396939,85.063117,Asia,Nepal,Central,Hetauda Submetropolitan,Exact,14/02/2019,17/03/2019,Confirmed,Influenza - Avian,H5N1 HPAI,"domestic, unspecified bird",50894,9769,9769,41125,,,,,
249044,OIE,38.045756,46.197428,Asia,Iran  (Islamic Republic of),East Azarbayejan,Tabriz city,Exact,26/02/2019,18/03/2019,Confirmed,Influenza - Avian,H5N8 HPAI,"domestic, unspecified bird",31,31,10,21,,,,,
248985,OIE,23.85947,120.29204,Asia,Taiwan (Province of China),Taiwan Sheng,Dacheng Township,Exact,04/03/2019,12/03/2019,Confirmed,Influenza - Avian,H5N2 HPAI,"domestic, chicken",34200,800,800,33400,,,,,
248984,OIE,23.739512,120.239687,Asia,Taiwan (Province of China),Taiwan Sheng,Dongshi Township,Exact,25/02/2019,12/03/2019,Confirmed,Influenza - Avian,H5N2 HPAI,"domestic, chicken",18903,52,52,18851,,,,,
248872,OIE,-29.7613,25.759473,Africa,South Africa,Free State,Letsemeng,Centroid Admin2,01/02/2019,14/03/2019,Confirmed,Influenza - Avian,H5N8 HPAI,"domestic, ostrich",4372,75,,1,,,0,,
248811,OIE,43.18,24.67,Europe,Bulgaria,Lovech,Lisets,Exact,13/03/2019,13/03/2019,Confirmed,Influenza - Avian,H5 HPAI,"domestic, unspecified bird",3200,20,0,,,,0,,
248643,OIE,15.4813,108.367,Asia,Viet Nam,Quang Nam,Tien Tho,Exact,11/02/2019,11/03/2019,Confirmed,Influenza - Avian,H5N6 HPAI,"domestic, duck",3800,1350,,3800,,,0,,
248343,OIE,22.71936111,120.56727778,Asia,Taiwan (Province of China),Taiwan Sheng,Yanpu Township,Exact,21/02/2019,05/03/2019,Confirmed,Influenza - Avian,H5N2 HPAI,"domestic, chicken",31890,466,466,31424,,,,,
248342,OIE,24.1502,86.6397,Asia,India,Jharkhand,Palojori Police Station,Exact,13/02/2019,07/03/2019,Confirmed,Influenza - Avian,H5N1 HPAI,"wild, crow",,9,9,,,,0,,
248341,OIE,23.3441,85.3096,Asia,India,Jharkhand,Oxygen Park,Exact,07/02/2019,07/03/2019,Confirmed,Influenza - Avian,H5N1 HPAI,"wild, crow",,1,1,,,,,,
248311,OIE,56.8177,10.0358,Europe,Denmark,Nordjylland,Terndrup,Exact,26/02/2019,01/03/2019,Confirmed,Influenza - Avian,H5 LPAI,"domestic, chicken",7000,,,7000,,,,,
248299,FAO Field Officer,31.01,31.32,Africa,Egypt,Dakahlia,Ouaish Elhagar,Exact,,31/12/2018,Confirmed,Influenza - Avian,H5N2 HPAI,"domestic, duck",1000,10,,10,,,0,,
248073,National authorities,11.56428,104.9156,Asia,Cambodia,Phnom Penh,Orussey market,Centroid Locality,24/02/2018,15/02/2019,Confirmed,Influenza - Avian,H7N4 LPAI,"domestic, duck",100,10,0,10,90,,0,,
248072,National authorities,10.9541,104.8565,Asia,Cambodia,Takeo,Daun Keo market,Exact,22/03/2018,15/02/2019,Confirmed,Influenza - Avian,H7N4 LPAI,"domestic, duck",100,10,0,10,90,,0,,
247951,OIE,26.64138,101.39805,Asia,China,Yunnan Sheng,Xingquan town community,Exact,13/02/2019,27/02/2019,Confirmed,Influenza - Avian,H5N6 HPAI,"domestic, unspecified bird",56380,463,463,55917,,,,,
247915,OIE,-29.7,24.4,Africa,South Africa,Free State,LPAI_H7N2_2019_001,Exact,01/02/2019,20/02/2019,Confirmed,Influenza - Avian,H7N2 LPAI,"domestic, ostrich",4372,75,,1,,,,,
247853,OIE,23.707283,120.40456,Asia,Taiwan (Province of China),Taiwan Sheng,Huwei,Exact,19/02/2019,26/02/2019,Confirmed,Influenza - Avian,H5N2 HPAI,"domestic, chicken",16788,60,60,16728,,,,,
247852,OIE,23.852358,120.289689,Asia,Taiwan (Province of China),Taiwan Sheng,Dacheng,Exact,13/02/2019,26/02/2019,Confirmed,Influenza - Avian,H5N2 HPAI,"domestic, chicken",34990,2450,2450,32540,,,,,
247851,OIE,23.591721,120.254411,Asia,Taiwan (Province of China),Taiwan Sheng,Shuilin,Exact,30/01/2019,26/02/2019,Confirmed,Influenza - Avian,H5N2 HPAI,"domestic, turkey",1005,141,141,864,,,,,
247850,OIE,23.688737,120.267855,Asia,Taiwan (Province of China),Taiwan Sheng,Dongshi,Exact,26/01/2019,26/02/2019,Confirmed,Influenza - Avian,H5N2 HPAI,"domestic, chicken",12713,1609,1609,11104,,,,,
247766,OIE,10.0215,8.9666,Africa,Nigeria,Bauchi,Sabon Garin Narayi,Exact,28/01/2019,27/02/2019,Confirmed,Influenza - Avian,H5N8 HPAI,"domestic, chicken",460,200,105,335,,,,,
247750,OIE,33.720231,73.108652,Asia,Pakistan,Islamabad,Diplomatic Enclave,Exact,07/01/2019,26/02/2019,Confirmed,Influenza - Avian,H5N8 HPAI,"wild, crow",,1,1,,,,0,,
247749,OIE,33.688928,72.987924,Asia,Pakistan,Islamabad,F 11/3,Exact,02/01/2019,26/02/2019,Confirmed,Influenza - Avian,H5N8 HPAI,"wild, mallard, wild, anatidae, wild, swan",68,63,63,5,,,,,
247662,OIE,25.180833,87.349167,Asia,India,Jharkhand,Fajilkhutahari,Exact,25/01/2019,16/02/2019,Confirmed,Influenza - Avian,H5N1 HPAI,"domestic, unspecified bird",4849,26,26,4823,,,,,
247632,OIE,23.8081,85.8233,Asia,India,Jharkhand,Gomia,Exact,28/01/2019,22/02/2019,Confirmed,Influenza - Avian,H5N1 HPAI,"wild, crow",,25,25,0,,,,,
247631,OIE,24.8255,87.2135,Asia,India,Jharkhand,"DC Campus, Godda",Exact,28/01/2019,22/02/2019,Confirmed,Influenza - Avian,H5N1 HPAI,"wild, crow",,12,12,0,,,,,
247630,OIE,25.216151,84.996358,Asia,India,Bihar,"Collector Office Campus, Jehanabad",Exact,01/02/2019,21/02/2019,Confirmed,Influenza - Avian,H5N1 HPAI,"wild, crow",,18,18,0,,,,,
247622,National authorities,26.958208,100.66324,Asia,China,Yunnan Sheng,Huaping County,Centroid Admin2,,22/02/2019,Confirmed,Influenza - Avian,H5N6 HPAI,"domestic, unspecified bird",2861,463,463,,,,,,
247465,"National Institute for Communicable Diseases, NICD",25.85,98.84,Asia,China,Yunnan Sheng,Lu Shui,Unknown,27/01/2019,15/02/2019,Confirmed,Influenza - Avian,H9N2 LPAI,,,,,,,Female,8,1,
247391,OIE,-34.0,21.6,Africa,South Africa,Western Cape,HPAI_H5N8_2017_203,Exact,08/01/2019,18/02/2019,Confirmed,Influenza - Avian,H5N8 HPAI,"domestic, ostrich",2711,18,6,,,,,,
247390,OIE,-33.5,21.6,Africa,South Africa,Western Cape,HPAI_H5N8_2017_202,Exact,07/12/2018,18/02/2019,Confirmed,Influenza - Avian,H5N8 HPAI,"domestic, ostrich",3348,168,168,,,,,,
247389,OIE,9.81123,8.903228,Africa,Nigeria,Plateau,Bukuru,Exact,11/02/2019,15/02/2019,Confirmed,Influenza - Avian,H5N8 HPAI,"domestic, chicken",1040,60,60,980,,,,,
247388,OIE,9.86002,8.82131,Africa,Nigeria,Plateau,Rantya,Exact,07/02/2019,15/02/2019,Confirmed,Influenza - Avian,H5N8 HPAI,"domestic, chicken",2900,11,11,2889,,,,,
246781,OIE,-26.65,15.16,Africa,Namibia,Karas,Luderitz Marine ResearchQuarantine Centre,Unknown,27/01/2019,12/02/2019,Confirmed,Influenza - Avian,H5N8 HPAI,"wild, jackass penguin spheniscus demersus",2,2,0,2,,,0,,
246691,National authorities,35.943889,126.954444,Asia,Republic of Korea,Chollabuk-do,"Mangyeong-Gang, Iksan City, Jeollabuk-do ",Centroid Locality,28/01/2019,02/02/2019,Confirmed,Influenza - Avian,H7N7 LPAI,"environmental sample, unspecified bird",,,,,,,,,
246690,National authorities,34.798333,126.7,Asia,Republic of Korea,Chollanam-do,"Yeongamcheon, Yeongam County, Chungcheongnam-do ",Centroid Locality,07/01/2019,10/01/2019,Confirmed,Influenza - Avian,H7N7 LPAI,"wild, unspecified bird",,,,,,,,,
246689,National authorities,37.75,128.9,Asia,Republic of Korea,Kang-won-do,"Namdaecheon, Gangneung City, Gangwon-do on ",Centroid Locality,07/01/2019,09/01/2019,Confirmed,Influenza - Avian,H7N7 LPAI,"environmental sample, unspecified bird",,,,,,,,,
246688,National authorities,35.270833,128.663056,Asia,Republic of Korea,Kyongsangnam-do,"Junan reservoir at Changwon City, Gyeongsangnam-do ",Centroid Locality,,02/01/2019,Confirmed,Influenza - Avian,H5 LPAI,"environmental sample, unspecified bird",,,,,,,,,
246687,National authorities,35.134722,126.794444,Asia,Republic of Korea,Chollanam-do,"Hwanglyonggang, Gwangsan District, Gwangju Metropolitan City",Centroid Locality,14/01/2019,16/01/2019,Confirmed,Influenza - Avian,H5 LPAI,"environmental sample, unspecified bird",,,,,,,,,
246686,National authorities,35.983333,126.716667,Asia,Republic of Korea,Chollabuk-do,"Geum Gangho, Gunsan City, Jeollabuk-do ",Centroid Locality,26/12/2018,02/01/2019,Confirmed,Influenza - Avian,H5 LPAI,"environmental sample, unspecified bird",,,,,,,,,
246685,National authorities,35.066667,128.083333,Asia,Republic of Korea,Kyongsangnam-do,"Sacheonman, Sacheon City, Gyeongsangnam-do ",Centroid Locality,21/01/2019,29/01/2019,Confirmed,Influenza - Avian,H7N6 LPAI,"environmental sample, unspecified bird",,,,,,,,,
246529,National authorities,36.633333,127.483333,Asia,Republic of Korea,Chungchongbuk-do,"Mihocheon, Cheongju City, Chungcheongbuk-do ",Centroid Locality,28/01/2019,02/02/2019,Confirmed,Influenza - Avian,H5N3 LPAI,"environmental sample, unspecified env. sample",,,,,,,,,
246528,National authorities,35.730278,128.268889,Asia,Republic of Korea,Kyongsangbuk-do,"Nakdong River, Golyeong County, Gyeongsangbuk-do ",Centroid Locality,28/01/2019,30/01/2019,Confirmed,Influenza - Avian,H7 LPAI,"environmental sample, unspecified env. sample",,,,,,,,,
246335,National authorities,35.166667,129.066667,Asia,Republic of Korea,Pusan,"Eulsug Island, Saha District, Busan City ",Centroid Locality,23/01/2019,29/01/2019,Confirmed,Influenza - Avian,H7 LPAI,"wild, unspecified bird",,,,,,,,,
246330,National authorities,36.45,127.116667,Asia,Republic of Korea,Taejon,Gongju City ,Centroid Locality,23/01/2019,29/01/2019,Confirmed,Influenza - Avian,H7 LPAI,"environmental sample, unspecified bird",,,,,,,,,
246271,OIE,37.02722,45.96961,Asia,Iran  (Islamic Republic of),West Azarbayejan,Hasel Ghopi Afshar,Exact,26/01/2019,05/02/2019,Confirmed,Influenza - Avian,H5N8 HPAI,"domestic, unspecified bird",190,190,7,183,,,,,
246270,OIE,37.28754,49.90987,Asia,Iran  (Islamic Republic of),Gilan,Iishliki,Exact,25/01/2019,05/02/2019,Confirmed,Influenza - Avian,H5N8 HPAI,"domestic, unspecified bird",315,315,24,291,,,,,
246258,OIE,36.19326,49.25563,Asia,Iran  (Islamic Republic of),Zanjan,Bala shenat,Exact,22/01/2019,02/02/2019,Confirmed,Influenza - Avian,H5N8 HPAI,"domestic, unspecified bird",823,823,25,798,,,,,
246251,OIE,29.311193,47.951374,Asia,Kuwait,Al Farwaniyah,Al Rai Live Bird Market,Unknown,24/01/2019,05/02/2019,Confirmed,Influenza - Avian,H5N8 HPAI,"domestic, unspecified bird",2000,3,3,1997,,,0,,
246208,OIE,-26.65,15.08,Africa,Namibia,Karas,Halifax Island,Unknown,27/01/2019,12/02/2019,Confirmed,Influenza - Avian,H5N8 HPAI,"wild, jackass penguin spheniscus demersus",7000,223,217,6,,,0,,
246066,OIE,24.91308,121.013272,Asia,Taiwan (Province of China),Taiwan Sheng,Xinfeng Township,Exact,23/01/2019,28/01/2019,Confirmed,Influenza - Avian,H5N2 HPAI,"domestic, chicken",100,100,100,,,,,,
246065,OIE,22.833561,120.488211,Asia,Taiwan (Province of China),Taiwan Sheng,Ligang Township,Exact,14/01/2019,28/01/2019,Confirmed,Influenza - Avian,H5N2 HPAI,"domestic, duck",6510,,,,6510,,,,
245813,OIE,47.525612,40.552595,Europe,Russian Federation,Rostovskaya Oblast,Ursdon 2,Exact,21/01/2019,28/01/2019,Confirmed,Influenza - Avian,H5 HPAI,"domestic, turkey",16177,51,51,,,,,,
245812,OIE,10.3346,9.8584,Africa,Nigeria,Bauchi,Fadaman Mada,Exact,10/01/2019,28/01/2019,Confirmed,Influenza - Avian,H5N8 HPAI,"domestic, chicken",2000,75,8,1992,,,,,
245811,OIE,-34.2,18.4,Africa,South Africa,Western Cape,HPAI_H5N8_2017_201,Exact,20/11/2018,28/01/2019,Confirmed,Influenza - Avian,H5N8 HPAI,"domestic, ostrich",112,7,,,,,,,
245810,OIE,-34.2,20.7,Africa,South Africa,Western Cape,HPAI_H5N8_2017_199,Exact,19/11/2018,28/01/2019,Confirmed,Influenza - Avian,H5N8 HPAI,"domestic, ostrich",390,6,5,,,,,,
245809,OIE,-34.2,21.0,Africa,South Africa,Western Cape,HPAI_H5N8_2017_198,Exact,27/09/2018,28/01/2019,Confirmed,Influenza - Avian,H5N8 HPAI,"domestic, ostrich",500,10,10,,,,,,
245808,OIE,-33.5,22.4,Africa,South Africa,Western Cape,HPAI_H5N8_2017_200,Exact,26/09/2018,28/01/2019,Confirmed,Influenza - Avian,H5N8 HPAI,"domestic, ostrich",1897,111,111,,,,,,
245807,OIE,-33.2,19.1,Africa,South Africa,Western Cape,HPAI_H5N8_2017_197,Exact,13/08/2018,28/01/2019,Confirmed,Influenza - Avian,H5N8 HPAI,"domestic, ostrich",3634,25,7,,,,,,
245752,National authorities,36.806991,127.150335,Asia,Republic of Korea,Chungchongnam-do,Dongnam District,Centroid Locality,17/01/2019,25/01/2019,Confirmed,Influenza - Avian,H7N9 LPAI,"environmental sample, unspecified env. sample",,,,,,,,,
245718,OIE,19.8206,-70.93546,Americas,Dominican Republic,Puerto Plata,Puerto Plata,Exact,02/11/2018,24/01/2019,Confirmed,Influenza - Avian,H5N2 LPAI,"domestic, unspecified bird",1126,773,745,136,217,,,,
245707,OIE,10.6805,9.7632,Africa,Nigeria,Bauchi,Gida Dubu,Exact,19/01/2019,24/01/2019,Confirmed,Influenza - Avian,H5N8 HPAI,"domestic, chicken",848,50,27,,,,,,
245688,OIE,23.725714,120.554512,Asia,Taiwan (Province of China),Taiwan Sheng,Douliu City,Exact,09/01/2019,21/01/2019,Confirmed,Influenza - Avian,H5N2 HPAI,"domestic, chicken",4761,,,4761,,,0,,
245687,OIE,24.113833,120.449778,Asia,Taiwan (Province of China),Taiwan Sheng,Lukang Township,Exact,06/12/2018,21/01/2019,Confirmed,Influenza - Avian,H5N2 HPAI,"domestic, chicken",6958,,,6958,,,,,
245500,OIE,55.9588,11.7773,Europe,Denmark,Vestsjaelland,Rørvig,Exact,04/01/2019,21/01/2019,Confirmed,Influenza - Avian,H5N6 HPAI,"wild, buzzard",,1,1,,,,,,
245337,OIE,55.2316,11.8316,Europe,Denmark,Storstroem,Næstved,Exact,22/12/2018,15/01/2019,Confirmed,Influenza - Avian,H5N6 HPAI,"wild,white tailed eagle (haliaeetus albicilla))",,1,1,,,,,,
245234,OIE,23.698137,120.237203,Asia,Taiwan (Province of China),Taiwan Sheng,Dongshi Township,Exact,25/12/2018,11/01/2019,Confirmed,Influenza - Avian,H5N2 HPAI,"domestic, duck",2139,,,2139,,,,,
245197,OIE,47.508678,40.526786,Europe,Russian Federation,Rostovskaya Oblast,Ursdon,Exact,04/01/2019,11/01/2019,Confirmed,Influenza - Avian,H5 HPAI,"domestic, turkey",17211,6355,6355,,,,,,
245154,OIE,23.652518,120.255147,Asia,Taiwan (Province of China),Taiwan Sheng,Sihu Township,Exact,27/12/2018,04/01/2019,Confirmed,Influenza - Avian,H5N2 HPAI,"domestic, turkey",1413,424,424,989,,,,,
245153,OIE,36.4979,52.1864,Asia,Iran  (Islamic Republic of),Mazandaran,Nor joje,Exact,25/12/2018,05/01/2019,Confirmed,Influenza - Avian,H5N8 HPAI,"domestic, chicken",35660,35260,394,35266,,,,,
245152,OIE,36.60364,52.74197,Asia,Iran  (Islamic Republic of),Mazandaran,Bala Langor,Exact,24/12/2018,05/01/2019,Confirmed,Influenza - Avian,H5N8 HPAI,"domestic, duck",1400,1000,400,1000,,,,,
244981,OIE,20.454265,85.879212,Asia,India,Orissa,Cuttack municipality,Exact,18/12/2018,07/01/2019,Confirmed,Influenza - Avian,H5N1 HPAI,"wild, crow",,3,3,,,,0,,
244980,OIE,20.1153,85.0725,Asia,India,Orissa,Muthagadia,Exact,16/12/2018,07/01/2019,Confirmed,Influenza - Avian,H5N1 HPAI,"wild, crow",,3,3,,,,0,,
244979,OIE,25.59945,85.09889,Asia,India,Bihar,Patna (Sanjay Gandhi Zoological Park),Exact,15/12/2018,07/01/2019,Confirmed,Influenza - Avian,H5N1 HPAI,"wild,phasianidae (phasianidae))",,6,6,,,,0,,
244978,OIE,25.3652,86.4922,Asia,India,Bihar,Mubarakchak,Exact,15/12/2018,07/01/2019,Confirmed,Influenza - Avian,H5N1 HPAI,"wild, crow",,40,40,,,,,,
244962,OIE,19.547775,85.267157,Asia,India,Orissa,Naba,Exact,17/12/2018,04/01/2019,Confirmed,Influenza - Avian,H5N1 HPAI,"domestic, unspecified bird",2500,2500,2500,0,0,,,,
244961,OIE,19.539743,85.232267,Asia,India,Orissa,"Nuagaon, Kantabania & Udayagiri",Exact,17/12/2018,04/01/2019,Confirmed,Influenza - Avian,H5N1 HPAI,"domestic, unspecified bird",5800,4728,4728,1072,0,,,,
244811,OIE,25.191151,86.62709,Asia,India,Bihar,Goraho,Exact,15/11/2018,28/12/2018,Confirmed,Influenza - Avian,H5N1 HPAI,"domestic, unspecified bird",705,117,117,588,0,,,,
244809,OIE,19.485,85.17305,Asia,India,Orissa,Nandala,Exact,18/12/2018,28/12/2018,Confirmed,Influenza - Avian,H5N1 HPAI,"domestic, unspecified bird",548,0,0,548,0,,,,
244808,OIE,19.62541,85.25196,Asia,India,Orissa,Epinga (Bauripalli),Exact,10/12/2018,28/12/2018,Confirmed,Influenza - Avian,H5N1 HPAI,"domestic, unspecified bird",164,0,0,164,0,,,,
244807,OIE,19.57919,85.27755,Asia,India,Orissa,Kanheipur (Harijansahi),Exact,10/12/2018,28/12/2018,Confirmed,Influenza - Avian,H5N1 HPAI,"domestic, unspecified bird",106,0,0,106,0,,,,
244806,OIE,19.555775,85.247881,Asia,India,Orissa,Malud,Exact,07/12/2018,28/12/2018,Confirmed,Influenza - Avian,H5N1 HPAI,"domestic, unspecified bird",185,0,0,185,0,,,,
244805,OIE,19.49888,85.193611,Asia,India,Orissa,Brahmandeo,Exact,07/12/2018,28/12/2018,Confirmed,Influenza - Avian,H5N1 HPAI,"domestic, unspecified bird",10627,40,40,10587,0,,,,
244804,OIE,12.6419,108.3358,Asia,Viet Nam,Dak Lak,Tan Tien,Exact,21/12/2018,27/12/2018,Confirmed,Influenza - Avian,H5N1 HPAI,"domestic, unspecified bird",215,100,50,0,165,,,,
244786,OIE,23.40009,120.50564,Asia,Taiwan (Province of China),Taiwan Sheng,Zhongpu Township,Exact,18/12/2018,25/12/2018,Confirmed,Influenza - Avian,H5N2 HPAI,"domestic, unspecified bird",16,16,16,0,0,,,,
244785,OIE,24.9038,121.1943,Asia,Taiwan (Province of China),Taiwan Sheng,Pingzhen District,Exact,17/12/2018,25/12/2018,Confirmed,Influenza - Avian,H5N2 HPAI,"domestic, unspecified bird",1202,33,33,1169,0,,,,
244709,OIE,42.4161,26.9308,Europe,Bulgaria,Jambol,Pravdino,Exact,22/11/2018,23/12/2018,Confirmed,Influenza - Avian,H5N8 HPAI,"domestic, unspecified bird",50,50,33,17,0,,,,
244667,National authorities,-6.697366,108.39697,Asia,Indonesia,Jawa Barat,Kedungbunder,Exact,13/12/2018,13/12/2018,Confirmed,Influenza - Avian,H5N1 HPAI,"domestic, chicken",,,29,,,,,,
244666,National authorities,-0.016677,110.801545,Asia,Indonesia,Kalimantan Barat,Sungai Ringin,Exact,02/12/2018,02/12/2018,Confirmed,Influenza - Avian,H5N1 HPAI,"domestic, chicken",,,2000,,,,,,
244665,National authorities,-6.4555,107.814651,Asia,Indonesia,Jawa Barat,Kamarung,Exact,30/11/2018,30/11/2018,Confirmed,Influenza - Avian,H5N1 HPAI,"domestic, chicken",,,912,,,,,,
244664,National authorities,-7.020862,110.444689,Asia,Indonesia,Jawa Tengah,Tandang,Exact,28/11/2018,28/11/2018,Confirmed,Influenza - Avian,H5N1 HPAI,"domestic, chicken",,,74,,,,,,
244642,National authorities,-6.538804,107.765905,Asia,Indonesia,Jawa Barat,Sukamelang,Exact,08/10/2018,08/10/2018,Confirmed,Influenza - Avian,H5N1 HPAI,"domestic, duck",,,500,,,,,,
244641,National authorities,-6.368349,107.785443,Asia,Indonesia,Jawa Barat,Mulyasari,Exact,05/10/2018,05/10/2018,Confirmed,Influenza - Avian,H5N1 HPAI,"domestic, chicken",,,40,,,,,,
244639,National authorities,-6.552034,107.73266,Asia,Indonesia,Jawa Barat,Dangdeur,Exact,04/10/2018,04/10/2018,Confirmed,Influenza - Avian,H5N1 HPAI,"domestic, muscovy ducks",,,14,,,,,,
244608,National authorities,0.808344,124.562707,Asia,Indonesia,Sulawesi Utara,Tombolikat Selatan,Exact,06/07/2018,06/07/2018,Confirmed,Influenza - Avian,H5N1 HPAI,"domestic, chicken",,,145,,,,,,
244607,National authorities,0.772214,124.501157,Asia,Indonesia,Sulawesi Utara,Tutuyan,Exact,06/07/2018,06/07/2018,Confirmed,Influenza - Avian,H5N1 HPAI,"domestic, duck",,,2,,,,,,
244606,National authorities,0.800692,124.539021,Asia,Indonesia,Sulawesi Utara,Tutuyan III,Exact,06/07/2018,06/07/2018,Confirmed,Influenza - Avian,H5N1 HPAI,"domestic, chicken",,,9,,,,,,
244605,National authorities,0.821782,124.551907,Asia,Indonesia,Sulawesi Utara,Kayumoyondi,Exact,05/07/2018,05/07/2018,Confirmed,Influenza - Avian,H5N1 HPAI,"domestic, chicken",,,161,,,,,,
244602,National authorities,-6.72484,107.804405,Asia,Indonesia,Jawa Barat,Sindanglaya,Exact,30/06/2018,30/06/2018,Confirmed,Influenza - Avian,H5N1 HPAI,"domestic, duck",,,150,,,,,,
244588,National authorities,0.737523,124.361287,Asia,Indonesia,Sulawesi Utara,Liberia,Exact,20/05/2018,20/05/2018,Confirmed,Influenza - Avian,H5N1 HPAI,"domestic, chicken",,,65,,,,,,
244587,National authorities,0.722611,124.340628,Asia,Indonesia,Sulawesi Utara,Bangunan Wuwuk,Exact,20/05/2018,20/05/2018,Confirmed,Influenza - Avian,H5N1 HPAI,"domestic, chicken",,,3,,,,,,
244585,National authorities,0.982122,124.788964,Asia,Indonesia,Sulawesi Utara,Tababo,Exact,19/05/2018,19/05/2018,Confirmed,Influenza - Avian,H5N1 HPAI,"domestic, chicken",,,246,,,,,,
244582,National authorities,0.723234,124.38094,Asia,Indonesia,Sulawesi Utara,Candi Rejo,Exact,15/05/2018,15/05/2018,Confirmed,Influenza - Avian,H5N1 HPAI,"domestic, chicken",,,45,,,,,,
244580,National authorities,0.525333,101.446477,Asia,Indonesia,Riau,Tuah Negeri,Exact,07/05/2018,07/05/2018,Confirmed,Influenza - Avian,H5N1 HPAI,"domestic, quail",,,700,,,,,,
244579,National authorities,52.908745,6.696514,Europe,Netherlands,Drenthe,"Veeningen Village, De Wolden Municipality",Centroid Admin1,24/12/2018,24/12/2018,Confirmed,Influenza - Avian,H5 LPAI,"captive, swan",,75,,,,,,,
244578,National authorities,22.889451,112.430983,Asia,China,Guangdong Sheng,Guangdong Sheng,Centroid Admin1,19/12/2018,02/01/2019,Confirmed,Influenza - Avian,H9N2 LPAI,,,,,,,Female,32,1,
244553,National authorities,21.3228,107.5137,Asia,Viet Nam,Quang Ninh,"Lang Nhoi village, Dong Hai commune",Exact,10/12/2018,21/12/2018,Confirmed,Influenza - Avian,H5N6 HPAI,"domestic, unspecified bird",1173,750,750,423,,,,,
244551,OIE,19.6275,85.30194444,Asia,India,Orissa,Alanda and Siala,Exact,07/12/2018,15/12/2018,Confirmed,Influenza - Avian,H5N1 HPAI,"wild, house crow",,120,120,0,0,,,,
244550,National authorities,25.347222,110.441174,Asia,China,Guangxi Zhuangzu Zizhiqu,Guilin,Centroid Admin2,10/10/2018,20/12/2018,Confirmed,Influenza - Avian,H9N2 LPAI,,,,,,,Male,3,1,
244548,National authorities,22.840217,111.794852,Asia,China,Guangdong Sheng,Yunfu,Centroid Admin2,16/10/2018,20/12/2018,Confirmed,Influenza - Avian,H9N2 LPAI,,,,,,,Female,1,1,
244359,OIE,55.2333,11.2908,Europe,Denmark,Vestsjaelland,Skaelskoer,Exact,19/09/2018,19/12/2018,Confirmed,Influenza - Avian,H5N6 HPAI,"wild,common pheasant (phasianus colchicus))",,3,3,0,,,0,,
244358,OIE,54.8381,11.4862,Europe,Denmark,Storstroem,Bandholm ,Exact,03/09/2018,19/12/2018,Confirmed,Influenza - Avian,H5N6 HPAI,"wild, greylag goose",,1,1,0,,,0,,
244155,National authorities,44.0969,22.6353,Europe,Bulgaria,Vidin,Kosovo,Exact,17/12/2018,17/12/2018,Confirmed,Influenza - Avian,H5 HPAI,"domestic,chicken,domestic,pigeon,domestic,common pheasant (phasianus colchicus))",403,,,,,,0,,
244064,OIE,23.694838,120.246618,Asia,Taiwan (Province of China),Taiwan Sheng,Dongshi Township,Exact,26/11/2018,17/12/2018,Confirmed,Influenza - Avian,H5N2 HPAI,"domestic, duck",3152,,,3152,,,,,
244063,OIE,23.695853,120.245367,Asia,Taiwan (Province of China),Taiwan Sheng,Dongshi Township,Exact,21/11/2018,17/12/2018,Confirmed,Influenza - Avian,H5N2 HPAI,"domestic, duck",1891,,,1891,,,,,
244062,OIE,-33.5,21.1,Africa,South Africa,Western Cape,HPAI_H5N8_2017_196,Exact,03/04/2018,14/12/2018,Confirmed,Influenza - Avian,H5N8 HPAI,"domestic, ostrich",218,63,63,,,,,,
243942,OIE,19.56816,85.241236,Asia,India,Orissa,Budhibara(Sanasahi) and Patharagang,Exact,07/12/2018,14/12/2018,Confirmed,Influenza - Avian,H5N1 HPAI,"domestic, unspecified bird",6123,5603,5603,520,0,,0,,
243803,OIE,38.50463,47.05185,Asia,Iran  (Islamic Republic of),East Azarbayejan,Yaghbastloo,Exact,19/11/2018,11/12/2018,Confirmed,Influenza - Avian,H5N8 HPAI,"domestic, turkey",32,22,10,22,,,,,
243802,OIE,38.474767,47.072252,Asia,Iran  (Islamic Republic of),East Azarbayejan,Bahman,Exact,18/11/2018,11/12/2018,Confirmed,Influenza - Avian,H5N8 HPAI,"domestic, turkey",53,53,3,50,,,,,
243801,OIE,38.48559,47.09883,Asia,Iran  (Islamic Republic of),East Azarbayejan,Sholebaran,Exact,15/11/2018,11/12/2018,Confirmed,Influenza - Avian,H5N8 HPAI,"domestic, turkey",215,199,145,70,,,,,
243659,National authorities,31.439757,120.780204,Asia,China,Jiangsu Sheng,Suzhou,Centroid Admin2,29/10/2018,23/11/2018,Confirmed,Influenza - Avian,H5N6 HPAI,,,,,,,Female,10,1,
243495,OIE,23.663665,120.323365,Asia,Taiwan (Province of China),Taiwan Sheng,Yuanchang Township,Exact,21/11/2018,04/12/2018,Confirmed,Influenza - Avian,H5N2 HPAI,"domestic, goose",1524,146,146,1378,,,,,
243494,OIE,23.719285,120.235539,Asia,Taiwan (Province of China),Taiwan Sheng,Taixi Township,Exact,15/11/2018,04/12/2018,Confirmed,Influenza - Avian,H5N2 HPAI,"domestic, duck",2206,,,2206,,,,,
243387,National authorities,37.542616,127.462483,Asia,Republic of Korea,Kyonggi-do,Hwaseong Sihwaho ,Centroid Admin1,29/11/2018,04/12/2018,Confirmed,Influenza - Avian,"H5N2 LPAI, H7N7 LPAI","environmental sample, unspecified bird",,,,,,,0,,
